{"type":"position","ident":"NAX4355","latitude":"48.65947","longitude":"12.86412","clck":"1442222585","identifier":"NAX4355-1442043000-schedule-0000:6","updatetype":"A","air_ground":"A","facilityHash":"6118199c4b495d91d57e8490f101d86dc6354bf5","facilityName":"FlightAware ADS-B","altitude":"38000","ground_speed":"375","num_passengers":"195","time_in_flight":"6014"}
{"type":"position","ident":"BAW2546","latitude":"42.40625","longitude":"2.00366","clck":"1442222585","identifier":"BAW2546-1442043600-schedule-0000:2","updatetype":"A","air_ground":"A","facilityHash":"b78d8be22301e46664cbea2ce1327ed24b08b67e","facilityName":"FlightAware ADS-B","altitude":"35000","ground_speed":"436","num_passengers":"175","time_in_flight":"0456"}
{"type":"position","ident":"EZY457","latitude":"52.11746","longitude":"-2.91436","clck":"1442222585","identifier":"EZY457-1442049300-schedule-0000:2","updatetype":"A","air_ground":"A","facilityHash":"3bf5d3402ca9e992ff2543da53262dbf275d9c39","facilityName":"FlightAware ADS-B","altitude":"26900","ground_speed":"393","num_passengers":"355","time_in_flight":"4240"}
{"type":"position","ident":"SXS911","latitude":"49.83536","longitude":"11.90058","clck":"1442222585","identifier":"SXS911-1442046900-schedule-0000","updatetype":"A","air_ground":"A","facilityHash":"f58c40c401dba1aa5a03d015e63be7c951663304","facilityName":"FlightAware ADS-B","altitude":"34600","ground_speed":"453","num_passengers":"93","time_in_flight":"2112"}
{"type":"position","ident":"EZS1416","latitude":"45.74492","longitude":"5.65072","clck":"1442222585","identifier":"EZS1416-1442124042-fa-0369:0","updatetype":"A","air_ground":"A","facilityHash":"a8475d71cdd0ffd674df219747d04db52291cba8","facilityName":"FlightAware ADS-B","altitude":"20700","ground_speed":"404","num_passengers":"36","time_in_flight":"1017"}
{"type":"position","ident":"QFA10","latitude":"-33.67929","longitude":"134.23940","clck":"1442222585","identifier":"QFA10-1442104333-airline-0061:0","updatetype":"A","air_ground":"A","facilityHash":"5a1e6d5c292d8e832b78e1de13141e8df797c91d","facilityName":"FlightAware ADS-B","altitude":"39000","ground_speed":"554","num_passengers":"116","time_in_flight":"4004"}
{"type":"position","ident":"SXS377","latitude":"46.71387","longitude":"20.40938","clck":"1442222585","identifier":"SXS377-1442044200-schedule-0000","updatetype":"A","air_ground":"A","facilityHash":"c64ec38cfe09841aa272e7f4bb669b94d1c4b261","facilityName":"FlightAware ADS-B","altitude":"37000","ground_speed":"406","num_passengers":"133","time_in_flight":"7665"}
{"type":"position","ident":"EZY483","latitude":"55.27226","longitude":"-4.17164","clck":"1442222585","identifier":"EZY483-1442048700-schedule-0000:0","updatetype":"A","air_ground":"A","facilityHash":"02effa6ccda87ec0f60fccc5f8fa9e6c428e4cb3","facilityName":"FlightAware ADS-B","altitude":"17000","ground_speed":"362","num_passengers":"256","time_in_flight":"7757"}
{"type":"position","ident":"SDM6842","latitude":"56.13883","longitude":"30.55804","clck":"1442222590","identifier":"SDM6842-1442045700-schedule-0000:0","updatetype":"A","air_ground":"A","facilityHash":"b93967e9d531a254b5f4c9a121330d62bb898a69","facilityName":"FlightAware ADS-B","altitude":"37000","ground_speed":"434","num_passengers":"7","time_in_flight":"4517"}
{"type":"position","ident":"SWR461","latitude":"51.56331","longitude":"0.21683","clck":"1442222590","identifier":"SWR461-1442048100-schedule-0000:0","updatetype":"A","air_ground":"A","facilityHash":"db2dd5dc5e408d880b7c1ae2d402009e1060338b","facilityName":"FlightAware ADS-B","altitude":"3900","ground_speed":"227","num_passengers":"89","time_in_flight":"2220"}
{"type":"position","ident":"VOZ973","latitude":"-28.81458","longitude":"153.28025","clck":"1442222590","identifier":"VOZ973-1442044800-schedule-0000","updatetype":"A","air_ground":"A","facilityHash":"0ab5c7855b2490ac4188b1ef4fb06da535278d78","facilityName":"FlightAware ADS-B","altitude":"25300","ground_speed":"379","num_passengers":"17","time_in_flight":"1303"}
{"type":"position","ident":"UAL1942","latitude":"30.74391","longitude":"-98.27841","clck":"1442222591","identifier":"UAL1942-1441963757-airline-0184","updatetype":"A","air_ground":"A","facilityHash":"c4d69f2912dd43cc9f597a16f6ff2febfa6e1c50","facilityName":"FlightAware ADS-B","altitude":"35000","ground_speed":"491","num_passengers":"108","time_in_flight":"7302"}
{"type":"position","ident":"ONE6319","latitude":"-27.44261","longitude":"-50.42320","clck":"1442222591","identifier":"ONE6319-1442048400-schedule-0001","updatetype":"A","air_ground":"A","facilityHash":"6a67706c2517033ab8f0c8a30b8395f1f40500cd","facilityName":"FlightAware ADS-B","altitude":"32400","ground_speed":"490","num_passengers":"98","time_in_flight":null}
{"type":"position","ident":"QFA465","latitude":"-34.50368","longitude":"150.88110","clck":"1442222590","identifier":"QFA465-1442048400-schedule-0001","updatetype":"A","air_ground":"A","facilityHash":"3ed253d5e5db4c5643725daed872983c2ed7bddd","facilityName":"FlightAware ADS-B","altitude":"25900","ground_speed":"435","num_passengers":"234","time_in_flight":"7250"}
{"type":"position","ident":"AZA318","latitude":"48.99735","longitude":"2.64669","clck":"1442222591","identifier":"AZA318-1442042100-schedule-0000:0","updatetype":"A","air_ground":"A","facilityHash":"9cd6b70f0e88d528ea0292db2615a2b35cfcbd17","facilityName":"FlightAware ADS-B","altitude":"1300","ground_speed":"135","num_passengers":"265","time_in_flight":"1000"}
{"type":"position","ident":"AAL162","latitude":"28.60267","longitude":"-83.19515","clck":"1442222591","identifier":"AAL162-1442075576-airline-0079","updatetype":"A","air_ground":"A","facilityHash":"46685db5843f422ebda92e9eed5090de2579d369","facilityName":"FlightAware ADS-B","altitude":"31000","ground_speed":"487","num_passengers":"91","time_in_flight":"7271"}
{"type":"position","ident":"RYR465","latitude":"49.39481","longitude":"6.18711","clck":"1442222591","identifier":"RYR465-1442046300-schedule-0001:2","updatetype":"A","air_ground":"A","facilityHash":"cd3cc38061b68ac40219254f4d4252de5195a92c","facilityName":"FlightAware ADS-B","altitude":"38000","ground_speed":"480","num_passengers":"344","time_in_flight":"5762"}
{"type":"position","ident":"JBU498","latitude":"46.94574","longitude":"-93.17596","clck":"1442222595","identifier":"JBU498-1442124954-183-0","updatetype":"A","air_ground":"A","facilityHash":"f711d54f6a9c18322dfe0e9881893814d3edcf3b","facilityName":"FlightAware ADS-B","altitude":"35000","ground_speed":"482","num_passengers":"101","time_in_flight":null}
{"type":"position","ident":"MON1276","latitude":"41.33666","longitude":"13.90201","clck":"1442222590","identifier":"MON1276-1442039400-schedule-0001:2","updatetype":"A","air_ground":"A","facilityHash":"8530c0b36fb54ccfc0f26d42f81979a6f5ce08b2","facilityName":"FlightAware ADS-B","altitude":"18600","ground_speed":"295","num_passengers":"127","time_in_flight":"0536"}
{"type":"position","ident":"THA461","latitude":"-36.66499","longitude":"144.44310","clck":"1442222590","identifier":"THA461-1442171958-fds-0003:0","updatetype":"A","air_ground":"A","facilityHash":"1668509a7a025ee51cb81988872f2167907eb21f","facilityName":"FlightAware ADS-B","altitude":"18400","ground_speed":"300","num_passengers":"98","time_in_flight":"6137"}
{"type":"position","ident":"THA461","latitude":"-36.66499","longitude":"144.44310","clck":"1442222590","identifier":"THA461-1442171958-fds-0003","updatetype":"A","air_ground":"A","facilityHash":"1668509a7a025ee51cb81988872f2167907eb21f","facilityName":"FlightAware ADS-B","altitude":"18400","ground_speed":"300","num_passengers":"98","time_in_flight":"6137"}
{"type":"position","ident":"BAW949","latitude":"50.54065","longitude":"6.65356","clck":"1442222590","identifier":"BAW949-1442035622-airline-0117:2","updatetype":"A","air_ground":"A","facilityHash":"6aeb0c25b9da2df0401858151366cf1874e0d7d1","facilityName":"FlightAware ADS-B","altitude":"36000","ground_speed":"469","num_passengers":"292","time_in_flight":"4120"}
{"type":"position","ident":"CSA759","latitude":"49.97699","longitude":"8.70949","clck":"1442222589","identifier":"CSA759-1442043964-airline-0003:0","updatetype":"A","air_ground":"A","facilityHash":"825715068800560e004ad660adfd314230c5b3f9","facilityName":"FlightAware ADS-B","altitude":"39000","ground_speed":"484","num_passengers":"80","time_in_flight":"1000"}
{"type":"position","ident":"ANZ19","latitude":"31.39622","longitude":"-121.64558","clck":"1442222591","identifier":"ANZ19-1442127651-490-0","updatetype":"A","air_ground":"A","facilityHash":"76d3fadcd8364a06b9eb652697044dbef1aa3a24","facilityName":"FlightAware ADS-B","altitude":"34000","ground_speed":"427","num_passengers":"235","time_in_flight":"2000"}
{"type":"position","ident":"AVA42","latitude":"39.52671","longitude":"-74.30597","clck":"1442222590","identifier":"AVA42-1442183532-254-0:0","updatetype":"A","air_ground":"A","facilityHash":"53b490acf7192f2bdaca1fe22c29b1d2cb6bb06f","facilityName":"FlightAware ADS-B","altitude":"19000","ground_speed":"342","num_passengers":"26","time_in_flight":"2211"}
{"type":"position","ident":"EZY464","latitude":"54.79591","longitude":"-6.21026","clck":"1442222596","identifier":"EZY464-1442047800-schedule-0002:0","updatetype":"A","air_ground":"A","facilityHash":"569f6ade9ebc69d343f0f52452770c9cc62593bb","facilityName":"FlightAware ADS-B","altitude":"6700","ground_speed":"271","num_passengers":"235","time_in_flight":"7633"}
{"type":"position","ident":"VOZ977","latitude":"-30.49017","longitude":"152.68530","clck":"1442222596","identifier":"VOZ977-1442046600-schedule-0000:0","updatetype":"A","air_ground":"A","facilityHash":"3386fb2c6b33bb530862f2795722831117a08176","facilityName":"FlightAware ADS-B","altitude":"39000","ground_speed":"473","num_passengers":"17","time_in_flight":"1525"}
{"type":"position","ident":"VOZ352","latitude":"-28.89288","longitude":"152.03866","clck":"1442222596","identifier":"VOZ352-1442048100-schedule-0000","updatetype":"A","air_ground":"A","facilityHash":"3386fb2c6b33bb530862f2795722831117a08176","facilityName":"FlightAware ADS-B","altitude":"38000","ground_speed":"369","num_passengers":"217","time_in_flight":"1171"}
{"type":"position","ident":"TAR744","latitude":"50.06328","longitude":"8.74743","clck":"1442222595","identifier":"TAR744-1442040900-schedule-0001","updatetype":"A","air_ground":"A","facilityHash":"785334841c0535eed6474d737e99691054e639c1","facilityName":"FlightAware ADS-B","altitude":"2600","ground_speed":"137","num_passengers":"251","time_in_flight":"1000"}
{"type":"position","ident":"AFR1213","latitude":"47.95123","longitude":"4.79462","clck":"1442222596","identifier":"AFR1213-1442044500-schedule-0007:2","updatetype":"A","air_ground":"A","facilityHash":"98da095cf32a29d089fa778ed95bf04e26d1fd7b","facilityName":"FlightAware ADS-B","altitude":"25900","ground_speed":"191","num_passengers":"336","time_in_flight":"5744"}
{"type":"position","ident":"VIR6","latitude":"51.23269","longitude":"-0.31487","clck":"1442222596","identifier":"VIR6-1442022600-schedule-0000:0","updatetype":"A","air_ground":"A","facilityHash":"19f8ca695fec907d5c7bb833562ce2ef7e898da4","facilityName":"FlightAware ADS-B","altitude":"9100","ground_speed":"237","num_passengers":"212","time_in_flight":"5461"}
{"type":"position","ident":"EZY4502","latitude":"48.31736","longitude":"11.95139","clck":"1442222594","identifier":"EZY4502-1442043000-schedule-0000:2","updatetype":"A","air_ground":"A","facilityHash":"b7af4d17a339ced88b74293921a6ed024f2ae307","facilityName":"FlightAware ADS-B","altitude":"36000","ground_speed":"522","num_passengers":"22","time_in_flight":"1000"}
{"type":"position","ident":"JST444","latitude":"-33.36630","longitude":"148.86210","clck":"1442222600","identifier":"JST444-1442045100-schedule-0000:0","updatetype":"A","air_ground":"A","facilityHash":"d84f2475cb87467ee7695786d0b0c8b084f720d4","facilityName":"FlightAware ADS-B","altitude":"37000","ground_speed":"523","num_passengers":"37","time_in_flight":"1275"}
{"type":"position","ident":"JST444","latitude":"-33.36630","longitude":"148.86210","clck":"1442222600","identifier":"JST444-1442045100-schedule-0000","updatetype":"A","air_ground":"A","facilityHash":"d84f2475cb87467ee7695786d0b0c8b084f720d4","facilityName":"FlightAware ADS-B","altitude":"37000","ground_speed":"523","num_passengers":"37","time_in_flight":"1275"}
{"type":"position","ident":"AAL8","latitude":"32.75727","longitude":"-121.02315","clck":"1442222601","identifier":"AAL8-1441949142-airline-0009","updatetype":"A","air_ground":"A","facilityHash":"cbbbace2e64d3107d462d3c4a78c1428b1fab6ff","facilityName":"FlightAware ADS-B","altitude":"37100","ground_speed":"521","num_passengers":"78","time_in_flight":"1155"}
{"type":"position","ident":"QFA459","latitude":"-37.47002","longitude":"145.60128","clck":"1442222601","identifier":"QFA459-1442044800-schedule-0000","updatetype":"A","air_ground":"A","facilityHash":"4b6c1f41c4052ed950c9736791073b2624d11e65","facilityName":"FlightAware ADS-B","altitude":"12900","ground_speed":"300","num_passengers":"236","time_in_flight":"7234"}
{"type":"position","ident":"QLK2061","latitude":"-37.83696","longitude":"144.58557","clck":"1442222602","identifier":"QLK2061-1442178407-airline-0037:0","updatetype":"A","air_ground":"A","facilityHash":"4b6c1f41c4052ed950c9736791073b2624d11e65","facilityName":"FlightAware ADS-B","altitude":"13700","ground_speed":"290","num_passengers":"167","time_in_flight":"3274"}
{"type":"position","ident":"QLK2061","latitude":"-37.83696","longitude":"144.58557","clck":"1442222602","identifier":"QLK2061-1442178407-airline-0037","updatetype":"A","air_ground":"A","facilityHash":"4b6c1f41c4052ed950c9736791073b2624d11e65","facilityName":"FlightAware ADS-B","altitude":"13700","ground_speed":"290","num_passengers":"167","time_in_flight":"3274"}
{"type":"position","ident":"VOZ379","latitude":"-20.82710","longitude":"148.29046","clck":"1442222601","identifier":"VOZ379-1442044800-schedule-0000:0","updatetype":"A","air_ground":"A","facilityHash":"8a8cd62b66e90391960b84cd981c989d88b776bc","facilityName":"FlightAware ADS-B","altitude":"36300","ground_speed":"417","num_passengers":"310","time_in_flight":"4720"}
{"type":"position","ident":"QJE1938","latitude":"-12.89502","longitude":"131.39822","clck":"1442222602","identifier":"QJE1938-1442161606-airline-0124:0","updatetype":"A","air_ground":"A","facilityHash":"b504caebf00c802a8c58d5e73524c4c862f72be4","facilityName":"FlightAware ADS-B","altitude":"13600","ground_speed":"324","num_passengers":"325","time_in_flight":"1471"}
{"type":"position","ident":"WJA734","latitude":"44.05955","longitude":"-82.43899","clck":"1442222601","identifier":"WJA734-1442039700-schedule-0001","updatetype":"A","air_ground":"A","facilityHash":"bdb3e2723b5edb9a386a0d42075f105894ed9e58","facilityName":"FlightAware ADS-B","altitude":"24300","ground_speed":"451","num_passengers":"137","time_in_flight":null}
{"type":"position","ident":"KLM1573","latitude":"40.07034","longitude":"22.80255","clck":"1442222601","identifier":"KLM1573-1442039700-schedule-0002:2","updatetype":"A","air_ground":"A","facilityHash":"5b072723ce83a95421d128c3a891e537ae1c1d67","facilityName":"FlightAware ADS-B","altitude":"39000","ground_speed":"445","num_passengers":"144","time_in_flight":"0140"}
{"type":"position","ident":"RYR7412","latitude":"50.64418","longitude":"3.79028","clck":"1442222602","identifier":"RYR7412-1442048100-schedule-0000:0","updatetype":"A","air_ground":"A","facilityHash":"36706b23e74ea0217ff3783201ec8dae2fcf1d84","facilityName":"FlightAware ADS-B","altitude":"32900","ground_speed":"411","num_passengers":"206","time_in_flight":"2161"}
{"type":"position","ident":"AFR1681","latitude":"51.03653","longitude":"-0.22425","clck":"1442222594","identifier":"AFR1681-1442047500-schedule-0000:0","updatetype":"A","air_ground":"A","facilityHash":"bec0e16e9f4b16d2707b708a41b98a622fb2a276","facilityName":"FlightAware ADS-B","altitude":"12700","ground_speed":"360","num_passengers":"119","time_in_flight":"6307"}
{"type":"position","ident":"QFA163","latitude":"-34.37036","longitude":"152.04820","clck":"1442222596","identifier":"QFA163-1442048100-schedule-0000:0","updatetype":"A","air_ground":"A","facilityHash":"e45ecb54ea80d6759216223363e0fcab3d022ea6","facilityName":"FlightAware ADS-B","altitude":"20700","ground_speed":"434","num_passengers":"120","time_in_flight":"1444"}
{"type":"position","ident":"RYR3442","latitude":"40.94888","longitude":"1.27722","clck":"1442222596","identifier":"RYR3442-1442047200-schedule-0005:0","updatetype":"A","air_ground":"A","facilityHash":"951fae821b20118ef986a8a40e8fed5f4e5fa644","facilityName":"FlightAware ADS-B","altitude":"38000","ground_speed":"392","num_passengers":"338","time_in_flight":"5343"}
{"type":"position","ident":"NAX1126","latitude":"59.42665","longitude":"10.66122","clck":"1442222566","identifier":"NAX1126-1442048400-schedule-0003:6","updatetype":"A","air_ground":"A","facilityHash":"153f4b0ad611b3a40dd2200e7543b17a5d382414","facilityName":"FlightAware ADS-B","altitude":"25400","ground_speed":"437","num_passengers":"189","time_in_flight":null}
{"type":"position","ident":"DLH686","latitude":"48.66022","longitude":"11.23475","clck":"1442222596","identifier":"DLH686-1442046000-schedule-0000:0","updatetype":"A","air_ground":"A","facilityHash":"628c1c93ad803afbc9134548a9886c9ceefabe64","facilityName":"FlightAware ADS-B","altitude":"34000","ground_speed":"454","num_passengers":"110","time_in_flight":"2107"}
{"type":"position","ident":"NAX3196","latitude":"59.77867","longitude":"18.00687","clck":"1442222596","identifier":"NAX3196-1442046600-schedule-0000:6","updatetype":"A","air_ground":"A","facilityHash":"95d21465279bb41a641b36c75b1180f634d9bc6a","facilityName":"FlightAware ADS-B","altitude":"2500","ground_speed":"167","num_passengers":"194","time_in_flight":"0267"}
{"type":"position","ident":"DAL201","latitude":"33.64935","longitude":"-84.57710","clck":"1442222596","identifier":"DAL201-1441992300-schedule-0000","updatetype":"A","air_ground":"A","facilityHash":"dcbe6a5e3d88044ea4a3be04c1a2f05f1282bb1d","facilityName":"FlightAware ADS-B","altitude":"3400","ground_speed":"205","num_passengers":"92","time_in_flight":"4437"}
{"type":"position","ident":"DAL170","latitude":"51.06120","longitude":"0.90994","clck":"1442222602","identifier":"DAL170-1442046900-schedule-0000:0","updatetype":"A","air_ground":"A","facilityHash":"5ee6d50dba8b37fd6825b7f467ed72b0c3844717","facilityName":"FlightAware ADS-B","altitude":"30000","ground_speed":"473","num_passengers":"287","time_in_flight":"7551"}
{"type":"position","ident":"DAL170","latitude":"51.06120","longitude":"0.90994","clck":"1442222602","identifier":"DAL170-1442046900-schedule-0000:2","updatetype":"A","air_ground":"A","facilityHash":"5ee6d50dba8b37fd6825b7f467ed72b0c3844717","facilityName":"FlightAware ADS-B","altitude":"30000","ground_speed":"473","num_passengers":"287","time_in_flight":"7551"}
{"type":"position","ident":"AIQ3006","latitude":"14.01301","longitude":"100.66110","clck":"1442222602","identifier":"AIQ3006-1442045700-schedule-0000","updatetype":"A","air_ground":"A","facilityHash":"042436a8ab66ac1642dc8df05164d84492d88429","facilityName":"FlightAware ADS-B","altitude":"2100","ground_speed":"168","num_passengers":"211","time_in_flight":"3366"}
{"type":"position","ident":"AAL796","latitude":"38.00450","longitude":"20.95362","clck":"1442222602","identifier":"AAL796-1442019900-schedule-0000:0","updatetype":"A","air_ground":"A","facilityHash":"d5717ba8e71b8d64ed0221926f8885f7b310b4ce","facilityName":"FlightAware ADS-B","altitude":"38900","ground_speed":"484","num_passengers":"112","time_in_flight":"1214"}
{"type":"position","ident":"AAL796","latitude":"38.00450","longitude":"20.95362","clck":"1442222602","identifier":"AAL796-1442019900-schedule-0000:2","updatetype":"A","air_ground":"A","facilityHash":"d5717ba8e71b8d64ed0221926f8885f7b310b4ce","facilityName":"FlightAware ADS-B","altitude":"38900","ground_speed":"484","num_passengers":"112","time_in_flight":"1214"}
{"type":"position","ident":"VOZ883","latitude":"-36.34937","longitude":"146.79190","clck":"1442222602","identifier":"VOZ883-1442048400-schedule-0001","updatetype":"A","air_ground":"A","facilityHash":"ab5f38e835b04d8d79c2cd31477c0c08d454c684","facilityName":"FlightAware ADS-B","altitude":"37000","ground_speed":"472","num_passengers":"53","time_in_flight":"4362"}
{"type":"position","ident":"AUA452","latitude":"50.84700","longitude":"3.82000","clck":"1442222601","identifier":"AUA452-1442045700-schedule-0001:0","updatetype":"A","air_ground":"A","facilityHash":"828ab51d40b01d431f5cd20f0ee662ac235f7801","facilityName":"FlightAware ADS-B","altitude":"35400","ground_speed":"462","num_passengers":"102","time_in_flight":null}
{"type":"position","ident":"RYR4282","latitude":"52.79933","longitude":"2.55073","clck":"1442222601","identifier":"RYR4282-1442046000-schedule-0001:0","updatetype":"A","air_ground":"A","facilityHash":"8c10c81d95f3940b3f046b3a8d19973629aba0d7","facilityName":"FlightAware ADS-B","altitude":"37000","ground_speed":"442","num_passengers":"101","time_in_flight":"3430"}
{"type":"position","ident":"RYR4282","latitude":"52.79933","longitude":"2.55073","clck":"1442222601","identifier":"RYR4282-1442046000-schedule-0001:2","updatetype":"A","air_ground":"A","facilityHash":"8c10c81d95f3940b3f046b3a8d19973629aba0d7","facilityName":"FlightAware ADS-B","altitude":"37000","ground_speed":"442","num_passengers":"101","time_in_flight":"3430"}
{"type":"position","ident":"THA476","latitude":"6.34195","longitude":"112.86986","clck":"1442222607","identifier":"THA476-1442164391-fds-0007:0","updatetype":"A","air_ground":"A","facilityHash":"92a02d404d3a1cefe1c0bc3f851c61069ad4e357","facilityName":"FlightAware ADS-B","altitude":"38000","ground_speed":"455","num_passengers":"318","time_in_flight":"1532"}
{"type":"position","ident":"THA476","latitude":"6.34195","longitude":"112.86986","clck":"1442222607","identifier":"THA476-1442164391-fds-0007","updatetype":"A","air_ground":"A","facilityHash":"92a02d404d3a1cefe1c0bc3f851c61069ad4e357","facilityName":"FlightAware ADS-B","altitude":"38000","ground_speed":"455","num_passengers":"318","time_in_flight":"1532"}
{"type":"position","ident":"BEL3667","latitude":"50.41727","longitude":"3.80799","clck":"1442222607","identifier":"BEL3667-1442043600-schedule-0000:0","updatetype":"A","air_ground":"A","facilityHash":"fb094f3a5ddad083c6184db6a7a43139b89d9c5f","facilityName":"FlightAware ADS-B","altitude":"18200","ground_speed":"601","num_passengers":"206","time_in_flight":"1000"}
{"type":"position","ident":"SWR1325","latitude":"53.23819","longitude":"24.16725","clck":"1442215501","identifier":"SWR1325-1442037900-schedule-0000:2","updatetype":"A","air_ground":"A","facilityHash":"b4da10a98ba2efe8797565077a15b9315c018347","facilityName":"FlightAware ADS-B","altitude":"34000","ground_speed":"429","num_passengers":"251","time_in_flight":null}
{"type":"position","ident":"SWR1325","latitude":"52.83320","longitude":"22.31606","clck":"1442216094","identifier":"SWR1325-1442037900-schedule-0000:2","updatetype":"A","air_ground":"A","facilityHash":"081499fbadc94800ace64fc9ae61b77aff81def4","facilityName":"FlightAware ADS-B","altitude":"34000","ground_speed":"431","num_passengers":"250","time_in_flight":null}
{"type":"position","ident":"SWR1325","latitude":"52.43225","longitude":"20.62471","clck":"1442216652","identifier":"SWR1325-1442037900-schedule-0000:2","updatetype":"A","air_ground":"A","facilityHash":"5568400938d99d189a9f6ee90e78f06fa7c314f0","facilityName":"FlightAware ADS-B","altitude":"34000","ground_speed":"426","num_passengers":"249","time_in_flight":null}
{"type":"position","ident":"THA461","latitude":"-36.68582","longitude":"144.50830","clck":"1442222630","identifier":"THA461-1442171958-fds-0003","updatetype":"A","air_ground":"A","facilityHash":"1668509a7a025ee51cb81988872f2167907eb21f","facilityName":"FlightAware ADS-B","altitude":"17900","ground_speed":"305","num_passengers":"113","time_in_flight":"6137"}
{"type":"position","ident":"FIN665","latitude":"58.54828","longitude":"21.77847","clck":"1442222524","identifier":"FIN665-1442048400-schedule-0000:0","updatetype":"A","air_ground":"A","facilityHash":"aced00fc49c7824520b63c4c0513beedd4feeb86","facilityName":"FlightAware ADS-B","altitude":"38000","ground_speed":"424","num_passengers":"222","time_in_flight":"7034"}
{"type":"position","ident":"JST768","latitude":"-34.71460","longitude":"139.12320","clck":"1442222524","identifier":"JST768-1442172451-airline-0066:0","updatetype":"A","air_ground":"A","facilityHash":"6f86828e1b27c9b2c5c6cf8420ea07295dfa5b3f","facilityName":"FlightAware ADS-B","altitude":"9400","ground_speed":"257","num_passengers":"256","time_in_flight":"4027"}
{"type":"position","ident":"QFA582","latitude":"-34.27322","longitude":"146.21460","clck":"1442222522","identifier":"QFA582-1442038200-schedule-0000:0","updatetype":"A","air_ground":"A","facilityHash":"cc3d3ee10ecf50ef7c90182efad01580a1bd1456","facilityName":"FlightAware ADS-B","altitude":"38000","ground_speed":"545","num_passengers":"101","time_in_flight":"3673"}
{"type":"position","ident":"RYR584","latitude":"46.84780","longitude":"8.40894","clck":"1442222515","identifier":"RYR584-1442043900-schedule-0000:2","updatetype":"A","air_ground":"A","facilityHash":"345bb79c2f6934e64d1b5ae96c96366d86802f96","facilityName":"FlightAware ADS-B","altitude":"37000","ground_speed":"412","num_passengers":"166","time_in_flight":"314"}
{"type":"position","ident":"BAW15","latitude":"1.52939","longitude":"103.17680","clck":"1442222524","identifier":"BAW15-1442003700-schedule-0000:0","updatetype":"A","air_ground":"A","facilityHash":"b8a4234acdf4a49ad09d140520bfc18a935f2d4b","facilityName":"FlightAware ADS-B","altitude":"24400","ground_speed":"416","num_passengers":"146","time_in_flight":"1034"}
{"type":"position","ident":"RBA614","latitude":"23.69444","longitude":"118.07261","clck":"1442222524","identifier":"RBA614-1442043300-schedule-0000:0","updatetype":"A","air_ground":"A","facilityHash":"0a645302932461314da75bab68377de008b430b1","facilityName":"FlightAware ADS-B","altitude":"36000","ground_speed":"453","num_passengers":"229","time_in_flight":"2760"}
{"type":"position","ident":"JST797","latitude":"-33.88632","longitude":"147.53480","clck":"1442222510","identifier":"JST797-1442042700-schedule-0000","updatetype":"A","air_ground":"A","facilityHash":"cc3d3ee10ecf50ef7c90182efad01580a1bd1456","facilityName":"FlightAware ADS-B","altitude":"36000","ground_speed":"367","num_passengers":"219","time_in_flight":"1017"}
{"type":"position","ident":"AFR1383","latitude":"49.05060","longitude":"3.45014","clck":"1442222524","identifier":"AFR1383-1442044500-schedule-0009:0","updatetype":"A","air_ground":"A","facilityHash":"7e3d127c8be5fc7af4b74cf62e75fd8830fdca02","facilityName":"FlightAware ADS-B","altitude":"11800","ground_speed":"229","num_passengers":"254","time_in_flight":"1000"}
{"type":"position","ident":"GWI9420","latitude":"50.73710","longitude":"5.93155","clck":"1442222524","identifier":"GWI9420-1442048100-schedule-0000:0","updatetype":"A","air_ground":"A","facilityHash":"6b2d2dbd85549b346509cab85a263700231ce54c","facilityName":"FlightAware ADS-B","altitude":"25400","ground_speed":"574","num_passengers":"174","time_in_flight":"1000"}
{"type":"position","ident":"EZY3827","latitude":"49.02283","longitude":"2.40833","clck":"1442222297","identifier":"EZY3827-1442048400-schedule-0002:6","updatetype":"A","air_ground":"A","facilityHash":"9cd6b70f0e88d528ea0292db2615a2b35cfcbd17","facilityName":"FlightAware ADS-B","altitude":"4900","ground_speed":"195","num_passengers":"306","time_in_flight":null}
{"type":"position","ident":"EZY3827","latitude":"49.25693","longitude":"2.47657","clck":"1442222474","identifier":"EZY3827-1442048400-schedule-0002:6","updatetype":"A","air_ground":"A","facilityHash":"6749e45a71b9ddc13b4c8b9611df117313a65e7a","facilityName":"FlightAware ADS-B","altitude":"12900","ground_speed":"356","num_passengers":"17","time_in_flight":null}
{"type":"position","ident":"SDM6267","latitude":"32.16174","longitude":"34.59221","clck":"1442222525","identifier":"SDM6267-1442034600-schedule-0000:0","updatetype":"A","air_ground":"A","facilityHash":"0527569f2f3488e58accf6619bbd9df21a0ea01d","facilityName":"FlightAware ADS-B","altitude":"5000","ground_speed":"254","num_passengers":"121","time_in_flight":"4233"}
{"type":"position","ident":"SWR236","latitude":"41.14957","longitude":"20.09552","clck":"1442222529","identifier":"SWR236-1442041500-schedule-0001:0","updatetype":"A","air_ground":"A","facilityHash":"cddd24a73d389d0b0fe7c59345597299cb553f7b","facilityName":"FlightAware ADS-B","altitude":"34400","ground_speed":"477","num_passengers":"135","time_in_flight":"3070"}
{"type":"position","ident":"THA672","latitude":"34.22353","longitude":"134.94112","clck":"1442222529","identifier":"THA672-1442030400-schedule-0000","updatetype":"A","air_ground":"A","facilityHash":"f5e79ae1098b2122b80e5a6fc22e7534d8341d79","facilityName":"FlightAware ADS-B","altitude":"5100","ground_speed":"228","num_passengers":"51","time_in_flight":null}
{"type":"position","ident":"BAW848","latitude":"46.73552","longitude":"13.96369","clck":"1442222529","identifier":"BAW848-1442035622-airline-0396:0","updatetype":"A","air_ground":"A","facilityHash":"2c8cee0a84b71656ab75d0067aa00eb3fbf3d59d","facilityName":"FlightAware ADS-B","altitude":"29700","ground_speed":"462","num_passengers":"126","time_in_flight":"4756"}
{"type":"position","ident":"RYR7974","latitude":"51.88796","longitude":"1.48773","clck":"1442222529","identifier":"RYR7974-1442044800-schedule-0000:2","updatetype":"A","air_ground":"A","facilityHash":"7e283589b6cd91b22c8d79cf47c84712e8d6505a","facilityName":"FlightAware ADS-B","altitude":"14800","ground_speed":"314","num_passengers":"284","time_in_flight":"6712"}
{"type":"position","ident":"JST11","latitude":"34.08893","longitude":"139.49510","clck":"1442222529","identifier":"JST11-1442149999-airline-0076","updatetype":"A","air_ground":"A","facilityHash":"efc66a033465fdf6d895dbaae001ecb90fae06b7","facilityName":"FlightAware ADS-B","altitude":"33700","ground_speed":"470","num_passengers":"7","time_in_flight":null}
{"type":"position","ident":"AAL137","latitude":"23.23947","longitude":"113.78480","clck":"1442222529","identifier":"AAL137-1441992000-schedule-0000","updatetype":"A","air_ground":"A","facilityHash":"ae24738a6f460ec404f51e5cffbc1fc02c5eb62e","facilityName":"FlightAware ADS-B","altitude":"32100","ground_speed":"466","num_passengers":"191","time_in_flight":"1232"}
{"type":"position","ident":"JAF1854","latitude":"47.77773","longitude":"0.90799","clck":"1442222529","identifier":"JAF1854-1442043300-schedule-0000:0","updatetype":"A","air_ground":"A","facilityHash":"b241d6cc8964d6e1df8104e91e9c42716c5a357a","facilityName":"FlightAware ADS-B","altitude":"36000","ground_speed":"477","num_passengers":"0","time_in_flight":"1055"}
{"type":"position","ident":"BAW1477","latitude":"53.17607","longitude":"-2.39894","clck":"1442222529","identifier":"BAW1477-1442046600-schedule-0001:2","updatetype":"A","air_ground":"A","facilityHash":"8c259d43093c7bf0658ef007c662f9df046a9858","facilityName":"FlightAware ADS-B","altitude":"33000","ground_speed":"427","num_passengers":"159","time_in_flight":"7760"}
{"type":"position","ident":"AZU5131","latitude":"-22.73181","longitude":"-47.58483","clck":"1442222529","identifier":"AZU5131-1442047800-schedule-0001","updatetype":"A","air_ground":"A","facilityHash":"633b7d880c04da627df6e7c5d0442962ae5f0b2c","facilityName":"FlightAware ADS-B","altitude":"11400","ground_speed":"301","num_passengers":"121","time_in_flight":null}
{"type":"position","ident":"DLH297","latitude":"48.39822","longitude":"9.04861","clck":"1442222528","identifier":"DLH297-1442046300-schedule-0000:0","updatetype":"A","air_ground":"A","facilityHash":"957f4ab7cd1531b3ff398a4e6f476ce0c242ddb7","facilityName":"FlightAware ADS-B","altitude":"32300","ground_speed":"494","num_passengers":"3","time_in_flight":"2765"}
{"type":"position","ident":"DAL201","latitude":"33.72102","longitude":"-84.67690","clck":"1442222453","identifier":"DAL201-1441992300-schedule-0000","updatetype":"A","air_ground":"A","facilityHash":"6ec39a70f0c4c46483d794e987888f46acf0f7d4","facilityName":"FlightAware ADS-B","altitude":"6700","ground_speed":"219","num_passengers":"215","time_in_flight":"4437"}
{"type":"position","ident":"RYR2582","latitude":"48.54401","longitude":"9.09069","clck":"1442222453","identifier":"RYR2582-1442046000-schedule-0000:0","updatetype":"A","air_ground":"A","facilityHash":"1a0b759b8a34614bfadc27340da4c00a41f1a86b","facilityName":"FlightAware ADS-B","altitude":"37000","ground_speed":"389","num_passengers":"232","time_in_flight":"3123"}
{"type":"position","ident":"EZY883","latitude":"55.73804","longitude":"-4.53361","clck":"1442222453","identifier":"EZY883-1442044800-schedule-0003:2","updatetype":"A","air_ground":"A","facilityHash":"aa879200b89fb555d4e717b3afeac6e696128007","facilityName":"FlightAware ADS-B","altitude":"3300","ground_speed":"235","num_passengers":"326","time_in_flight":"4455"}
{"type":"position","ident":"ACA875","latitude":"50.97006","longitude":"7.02628","clck":"1442221873","identifier":"ACA875-1442045700-schedule-0001:2","updatetype":"A","air_ground":"A","facilityHash":"6b2d2dbd85549b346509cab85a263700231ce54c","facilityName":"FlightAware ADS-B","altitude":"23800","ground_speed":"677","num_passengers":"301","time_in_flight":null}
{"type":"position","ident":"ACA875","latitude":"51.04569","longitude":"6.83174","clck":"1442221944","identifier":"ACA875-1442045700-schedule-0001:2","updatetype":"A","air_ground":"A","facilityHash":"16ec6def4684fcbaa9a5050cc8fefd402bb3eb76","facilityName":"FlightAware ADS-B","altitude":"25100","ground_speed":"719","num_passengers":"302","time_in_flight":null}
{"type":"position","ident":"ACA875","latitude":"51.17231","longitude":"6.51108","clck":"1442222051","identifier":"ACA875-1442045700-schedule-0001:2","updatetype":"A","air_ground":"A","facilityHash":"9b94d49776623d54c080719b7d9106957a423f16","facilityName":"FlightAware ADS-B","altitude":"26800","ground_speed":"489","num_passengers":"311","time_in_flight":null}
{"type":"position","ident":"SAA40","latitude":"-24.69135","longitude":"27.96461","clck":"1442222445","identifier":"SAA40-1442047800-schedule-0000","updatetype":"A","air_ground":"A","facilityHash":"3219c2ba20f92f19e264f7bd55d3284641238610","facilityName":"FlightAware ADS-B","altitude":"29400","ground_speed":"484","num_passengers":"349","time_in_flight":"2633"}
{"type":"position","ident":"AAL75","latitude":"40.62623","longitude":"-73.72088","clck":"1442222444","identifier":"AAL75-1441949142-airline-0095","updatetype":"A","air_ground":"A","facilityHash":"15e49b66b57d411dc4ee7ca28d28060d00ad4922","facilityName":"FlightAware ADS-B","altitude":"700","ground_speed":"130","num_passengers":"301","time_in_flight":"6356"}
{"type":"position","ident":"NKS906","latitude":"35.11947","longitude":"-108.24450","clck":"1442222444","identifier":"NKS906-1442046180-schedule-0000","updatetype":"A","air_ground":"A","facilityHash":"79a5e32ba15dcdd9e2f159dd0cc30c13bb3a9ed5","facilityName":"FlightAware ADS-B","altitude":"37000","ground_speed":"518","num_passengers":"114","time_in_flight":"7252"}
{"type":"position","ident":"JBU498","latitude":"47.01384","longitude":"-93.65927","clck":"1442222444","identifier":"JBU498-1442124954-183-0","updatetype":"A","air_ground":"A","facilityHash":"f711d54f6a9c18322dfe0e9881893814d3edcf3b","facilityName":"FlightAware ADS-B","altitude":"35000","ground_speed":"481","num_passengers":"101","time_in_flight":null}
{"type":"position","ident":"DLH1095","latitude":"49.88846","longitude":"9.20987","clck":"1442222444","identifier":"DLH1095-1442044200-schedule-0000:0","updatetype":"A","air_ground":"A","facilityHash":"785334841c0535eed6474d737e99691054e639c1","facilityName":"FlightAware ADS-B","altitude":"8500","ground_speed":"323","num_passengers":"288","time_in_flight":null}
{"type":"position","ident":"DLH161","latitude":"50.17955","longitude":"9.09234","clck":"1442222444","identifier":"DLH161-1442047500-schedule-0001:2","updatetype":"A","air_ground":"A","facilityHash":"785334841c0535eed6474d737e99691054e639c1","facilityName":"FlightAware ADS-B","altitude":"6100","ground_speed":"225","num_passengers":"249","time_in_flight":"1000"}
{"type":"position","ident":"VOZ746","latitude":"-37.32779","longitude":"144.77280","clck":"1442222453","identifier":"VOZ746-1442040600-schedule-0000","updatetype":"A","air_ground":"A","facilityHash":"023153a4ee13cd21c0aa33988db85eb9e6bc31d5","facilityName":"FlightAware ADS-B","altitude":"8900","ground_speed":"321","num_passengers":"173","time_in_flight":"1161"}
{"type":"position","ident":"AAL93","latitude":"54.22270","longitude":"-9.28564","clck":"1442222453","identifier":"AAL93-1442047200-schedule-0001:0","updatetype":"A","air_ground":"A","facilityHash":"8be1056c2334b2d61a74c9f3454261792f363a54","facilityName":"FlightAware ADS-B","altitude":"35000","ground_speed":"458","num_passengers":"296","time_in_flight":"6336"}
{"type":"position","ident":"EZY8752","latitude":"41.65867","longitude":"17.54057","clck":"1442222454","identifier":"EZY8752-1442047500-schedule-0000:0","updatetype":"A","air_ground":"A","facilityHash":"cddd24a73d389d0b0fe7c59345597299cb553f7b","facilityName":"FlightAware ADS-B","altitude":"35400","ground_speed":"451","num_passengers":"322","time_in_flight":"3737"}
{"type":"position","ident":"VIR103","latitude":"52.03944","longitude":"-5.69312","clck":"1442222444","identifier":"VIR103-1442046600-schedule-0003:2","updatetype":"A","air_ground":"A","facilityHash":"f53e2e02d4a842103b5bf61843dfcb670f85fd43","facilityName":"FlightAware ADS-B","altitude":"33500","ground_speed":"455","num_passengers":"272","time_in_flight":"7654"}
{"type":"position","ident":"TAP772","latitude":"38.84528","longitude":"-9.07405","clck":"1442222444","identifier":"TAP772-1442048400-schedule-0000","updatetype":"A","air_ground":"A","facilityHash":"3749fd3e74e223bcc78c4d96aeb6260588c99404","facilityName":"FlightAware ADS-B","altitude":"3200","ground_speed":"229","num_passengers":"45","time_in_flight":"4752"}
{"type":"position","ident":"QJE1901","latitude":"-31.73922","longitude":"116.08730","clck":"1442222456","identifier":"QJE1901-1442173610-airline-0277","updatetype":"A","air_ground":"A","facilityHash":"d6da2da3b6edf1f80f35f53b7261e390c4e81096","facilityName":"FlightAware ADS-B","altitude":"3600","ground_speed":"137","num_passengers":"209","time_in_flight":"7255"}
{"type":"position","ident":"BEL3667","latitude":"50.59428","longitude":"3.96346","clck":"1442222457","identifier":"BEL3667-1442043600-schedule-0000:0","updatetype":"A","air_ground":"A","facilityHash":"fb094f3a5ddad083c6184db6a7a43139b89d9c5f","facilityName":"FlightAware ADS-B","altitude":"13700","ground_speed":"266","num_passengers":"215","time_in_flight":"1000"}
{"type":"position","ident":"AFR1497","latitude":"48.99833","longitude":"2.66700","clck":"1442222459","identifier":"AFR1497-1442040000-schedule-0000:2","updatetype":"A","air_ground":"A","facilityHash":"9cd6b70f0e88d528ea0292db2615a2b35cfcbd17","facilityName":"FlightAware ADS-B","altitude":"1500","ground_speed":"134","num_passengers":"266","time_in_flight":"1063"}
{"type":"position","ident":"SAS602","latitude":"50.09271","longitude":"9.55919","clck":"1442222454","identifier":"SAS602-1442046000-schedule-0000:0","updatetype":"A","air_ground":"A","facilityHash":"aa7f800036a5a52ba103cabac6611b618e8ba343","facilityName":"FlightAware ADS-B","altitude":"36000","ground_speed":"528","num_passengers":"16","time_in_flight":"3060"}
{"type":"position","ident":"GWI9420","latitude":"50.85948","longitude":"5.94498","clck":"1442222454","identifier":"GWI9420-1442048100-schedule-0000:0","updatetype":"A","air_ground":"A","facilityHash":"466533c2b2446a1c4c8858aa3b0f4bef11798c89","facilityName":"FlightAware ADS-B","altitude":"23600","ground_speed":"385","num_passengers":"209","time_in_flight":"1000"}
{"type":"position","ident":"AUA661","latitude":"49.97611","longitude":"29.43319","clck":"1442222454","identifier":"AUA661-1442044200-schedule-0001","updatetype":"A","air_ground":"A","facilityHash":"091c7dde583446a9af847412ee1504a9016e02f0","facilityName":"FlightAware ADS-B","altitude":"19200","ground_speed":"385","num_passengers":"79","time_in_flight":"7120"}
{"type":"position","ident":"EZY4564","latitude":"52.67847","longitude":"12.27424","clck":"1442222454","identifier":"EZY4564-1442039700-schedule-0000:2","updatetype":"A","air_ground":"A","facilityHash":"0232f4949ae273ecfc9cbe3bf48526456931c448","facilityName":"FlightAware ADS-B","altitude":"14100","ground_speed":"315","num_passengers":"107","time_in_flight":"1000"}
{"type":"position","ident":"BAW499","latitude":"49.66179","longitude":"-1.71825","clck":"1442222454","identifier":"BAW499-1442041800-schedule-0000:0","updatetype":"A","air_ground":"A","facilityHash":"f58de4167c9c13426c2b04b60af175c3654896f8","facilityName":"FlightAware ADS-B","altitude":"33200","ground_speed":"432","num_passengers":"19","time_in_flight":"7451"}
{"type":"position","ident":"BAW499","latitude":"49.66179","longitude":"-1.71825","clck":"1442222454","identifier":"BAW499-1442041800-schedule-0000:2","updatetype":"A","air_ground":"A","facilityHash":"f58de4167c9c13426c2b04b60af175c3654896f8","facilityName":"FlightAware ADS-B","altitude":"33200","ground_speed":"432","num_passengers":"19","time_in_flight":"7451"}
{"type":"position","ident":"AAL759","latitude":"41.11908","longitude":"19.99349","clck":"1442222459","identifier":"AAL759-1442046000-schedule-0001:2","updatetype":"A","air_ground":"A","facilityHash":"cddd24a73d389d0b0fe7c59345597299cb553f7b","facilityName":"FlightAware ADS-B","altitude":"38000","ground_speed":"456","num_passengers":"337","time_in_flight":"2016"}
{"type":"position","ident":"EZS1312","latitude":"39.43529","longitude":"-3.65796","clck":"1442222459","identifier":"EZS1312-1442124042-fa-0305:0","updatetype":"A","air_ground":"A","facilityHash":"3973637cc814824f53387018820f7b6ab0778f27","facilityName":"FlightAware ADS-B","altitude":"38000","ground_speed":"457","num_passengers":"23","time_in_flight":"6447"}
{"type":"position","ident":"EZY6052","latitude":"41.64748","longitude":"-3.61719","clck":"1442222458","identifier":"EZY6052-1442046000-schedule-0000:0","updatetype":"A","air_ground":"A","facilityHash":"edc00e19f707e95808d1e1363651317749480efe","facilityName":"FlightAware ADS-B","altitude":"36000","ground_speed":"433","num_passengers":"359","time_in_flight":"4621"}
{"type":"position","ident":"QFA479","latitude":"-34.78464","longitude":"150.41400","clck":"1442222458","identifier":"QFA479-1442047500-schedule-0002:0","updatetype":"A","air_ground":"A","facilityHash":"fe507e339280ec50a31cd4e067d399449189c0ed","facilityName":"FlightAware ADS-B","altitude":"36100","ground_speed":"345","num_passengers":"234","time_in_flight":"4073"}
{"type":"position","ident":"RYR7183","latitude":"47.78032","longitude":"12.58807","clck":"1442222453","identifier":"RYR7183-1442046000-schedule-0000:2","updatetype":"A","air_ground":"A","facilityHash":"0117ef257fff3ebb32a0ec5e96581e0f0b06c611","facilityName":"FlightAware ADS-B","altitude":"38000","ground_speed":"372","num_passengers":"198","time_in_flight":"6060"}
{"type":"position","ident":"AFR7652","latitude":"45.97366","longitude":"5.04641","clck":"1442222459","identifier":"AFR7652-1442045400-schedule-0001:2","updatetype":"A","air_ground":"A","facilityHash":"a8475d71cdd0ffd674df219747d04db52291cba8","facilityName":"FlightAware ADS-B","altitude":"6000","ground_speed":"192","num_passengers":"143","time_in_flight":"1000"}
{"type":"position","ident":"RYR6424","latitude":"48.99293","longitude":"9.05685","clck":"1442222460","identifier":"RYR6424-1442045400-schedule-0000:0","updatetype":"A","air_ground":"A","facilityHash":"369861d15a2ea153bc1bb9d6f57aff43563505c9","facilityName":"FlightAware ADS-B","altitude":"37000","ground_speed":"435","num_passengers":"160","time_in_flight":null}
{"type":"position","ident":"UAL80","latitude":"53.19882","longitude":"-8.74182","clck":"1442222460","identifier":"UAL80-1442046300-schedule-0000:0","updatetype":"A","air_ground":"A","facilityHash":"10f040b5d41e84adcf34de76e0763afde01ec38c","facilityName":"FlightAware ADS-B","altitude":"35000","ground_speed":"468","num_passengers":"255","time_in_flight":"4466"}
{"type":"position","ident":"TAP334","latitude":"49.31566","longitude":"-2.06698","clck":"1442222460","identifier":"TAP334-1442044200-schedule-0002","updatetype":"A","air_ground":"A","facilityHash":"3ff9c83178b382d2ab30fe4066ce98e7f300aedc","facilityName":"FlightAware ADS-B","altitude":"38000","ground_speed":"484","num_passengers":"38","time_in_flight":"7453"}
{"type":"position","ident":"RYR52","latitude":"58.44800","longitude":"13.83586","clck":"1442222476","identifier":"RYR52-1442035668-airline-0143:2","updatetype":"A","air_ground":"A","facilityHash":"fc9c0a930c00fe823028c072f5e849542993f87f","facilityName":"FlightAware ADS-B","altitude":"28200","ground_speed":"459","num_passengers":"55","time_in_flight":"3446"}
{"type":"position","ident":"AFR279","latitude":"54.66316","longitude":"11.51973","clck":"1442222477","identifier":"AFR279-1442171335-ed-0003:0","updatetype":"A","air_ground":"A","facilityHash":"fc9c0a930c00fe823028c072f5e849542993f87f","facilityName":"FlightAware ADS-B","altitude":"39000","ground_speed":"430","num_passengers":"216","time_in_flight":"3517"}
{"type":"position","ident":"KLM1109","latitude":"56.47879","longitude":"10.44384","clck":"1442222476","identifier":"KLM1109-1442045700-schedule-0000:6","updatetype":"A","air_ground":"A","facilityHash":"fc9c0a930c00fe823028c072f5e849542993f87f","facilityName":"FlightAware ADS-B","altitude":"39000","ground_speed":"480","num_passengers":"44","time_in_flight":"3141"}
{"type":"position","ident":"AIQ764","latitude":"14.64347","longitude":"102.42440","clck":"1442222481","identifier":"AIQ764-1442047500-schedule-0000","updatetype":"A","air_ground":"A","facilityHash":"042436a8ab66ac1642dc8df05164d84492d88429","facilityName":"FlightAware ADS-B","altitude":"33800","ground_speed":"428","num_passengers":"55","time_in_flight":"0703"}
{"type":"position","ident":"AFR6213","latitude":"43.55115","longitude":"7.18212","clck":"1442222481","identifier":"AFR6213-1442048400-schedule-0002:0","updatetype":"A","air_ground":"A","facilityHash":"732f2d2bb860705d90abb1219b258b6811e0aa2e","facilityName":"FlightAware ADS-B","altitude":"5500","ground_speed":"220","num_passengers":"170","time_in_flight":"1000"}
{"type":"position","ident":"JST240","latitude":"-28.49442","longitude":"154.36600","clck":"1442222481","identifier":"JST240-1442036100-schedule-0000:2","updatetype":"A","air_ground":"A","facilityHash":"03f19a6ab73b74fba862da368a4e74c0827be353","facilityName":"FlightAware ADS-B","altitude":"14000","ground_speed":"341","num_passengers":"285","time_in_flight":"0215"}
{"type":"position","ident":"EZY8831","latitude":"42.42724","longitude":"23.31407","clck":"1442222481","identifier":"EZY8831-1442037900-schedule-0000:0","updatetype":"A","air_ground":"A","facilityHash":"5734f28e86e8b1cd42613cfcfadc9d7d19b2a885","facilityName":"FlightAware ADS-B","altitude":"37000","ground_speed":"465","num_passengers":"145","time_in_flight":"0371"}
{"type":"position","ident":"EZY8831","latitude":"42.42724","longitude":"23.31407","clck":"1442222481","identifier":"EZY8831-1442037900-schedule-0000:2","updatetype":"A","air_ground":"A","facilityHash":"5734f28e86e8b1cd42613cfcfadc9d7d19b2a885","facilityName":"FlightAware ADS-B","altitude":"37000","ground_speed":"465","num_passengers":"145","time_in_flight":"0371"}
{"type":"position","ident":"AAL962","latitude":"31.52065","longitude":"-95.78021","clck":"1442222514","identifier":"AAL962-1442014200-schedule-0000","updatetype":"A","air_ground":"A","facilityHash":"445e828c1bd0fa6e7e8988dd0ebe5c5065c9613f","facilityName":"FlightAware ADS-B","altitude":"31200","ground_speed":"204","num_passengers":"329","time_in_flight":null}
{"type":"position","ident":"DLH1059","latitude":"46.14965","longitude":"9.04498","clck":"1442222513","identifier":"DLH1059-1442046900-schedule-0000:0","updatetype":"A","air_ground":"A","facilityHash":"7c1b0203bc9f9a0a79bf2457a59dc858f9834f7a","facilityName":"FlightAware ADS-B","altitude":"36000","ground_speed":"479","num_passengers":"355","time_in_flight":"1000"}
{"type":"position","ident":"EXS853","latitude":"45.71323","longitude":"9.41837","clck":"1442222512","identifier":"EXS853-1442041200-schedule-0000:0","updatetype":"A","air_ground":"A","facilityHash":"7c1b0203bc9f9a0a79bf2457a59dc858f9834f7a","facilityName":"FlightAware ADS-B","altitude":"33000","ground_speed":"471","num_passengers":"98","time_in_flight":"4644"}
{"type":"position","ident":"EXS853","latitude":"45.71323","longitude":"9.41837","clck":"1442222512","identifier":"EXS853-1442041200-schedule-0000:2","updatetype":"A","air_ground":"A","facilityHash":"7c1b0203bc9f9a0a79bf2457a59dc858f9834f7a","facilityName":"FlightAware ADS-B","altitude":"33000","ground_speed":"471","num_passengers":"98","time_in_flight":"4644"}
{"type":"position","ident":"EZY2863","latitude":"45.59294","longitude":"9.10458","clck":"1442222512","identifier":"EZY2863-1442048400-schedule-0002:2","updatetype":"A","air_ground":"A","facilityHash":"7c1b0203bc9f9a0a79bf2457a59dc858f9834f7a","facilityName":"FlightAware ADS-B","altitude":"11800","ground_speed":"328","num_passengers":"132","time_in_flight":"6316"}
{"type":"position","ident":"QFA462","latitude":"-37.44067","longitude":"144.91493","clck":"1442222514","identifier":"QFA462-1442048400-schedule-0000","updatetype":"A","air_ground":"A","facilityHash":"dab92e38e2bf534cc259f1cc7ef32978823ecc71","facilityName":"FlightAware ADS-B","altitude":"11100","ground_speed":"316","num_passengers":"35","time_in_flight":"3676"}
{"type":"position","ident":"EZY1673","latitude":"46.47469","longitude":"-0.93906","clck":"1442222629","identifier":"EZY1673-1442046000-schedule-0000:0","updatetype":"A","air_ground":"A","facilityHash":"985ab3ec74db8613abe13ff0274496b7f8b8b2db","facilityName":"FlightAware ADS-B","altitude":"23400","ground_speed":"325","num_passengers":"313","time_in_flight":"1000"}
{"type":"position","ident":"RYR4567","latitude":"47.84990","longitude":"3.84233","clck":"1442222629","identifier":"RYR4567-1442045700-schedule-0000:0","updatetype":"A","air_ground":"A","facilityHash":"e624c99caaec37eb464e50792eb5d0633d1b9382","facilityName":"FlightAware ADS-B","altitude":"36000","ground_speed":"455","num_passengers":"332","time_in_flight":"4066"}
{"type":"position","ident":"DNV5399","latitude":"54.78807","longitude":"38.53796","clck":"1442222629","identifier":"DNV5399-1442039400-schedule-0001:0","updatetype":"A","air_ground":"A","facilityHash":"d403e8995db2b188662ab28e26bc771e49f3c19a","facilityName":"FlightAware ADS-B","altitude":"34000","ground_speed":"452","num_passengers":"339","time_in_flight":"1027"}
{"type":"position","ident":"VHLKH","latitude":"-31.12111","longitude":"116.57232","clck":"1442222629","identifier":"VHLKH-1442182101-fds-0004","updatetype":"A","air_ground":"A","facilityHash":"9738858e2b4d911f21b3d128ed3f0df48c71aa99","facilityName":"FlightAware ADS-B","altitude":"18200","ground_speed":"244","num_passengers":"201","time_in_flight":"4277"}
{"type":"position","ident":"AZA1710","latitude":"40.71373","longitude":"12.57727","clck":"1442222630","identifier":"AZA1710-1442045400-schedule-0000:0","updatetype":"A","air_ground":"A","facilityHash":"ca642e9d6a4a59c873d62fa737c8cec5995d4cc1","facilityName":"FlightAware ADS-B","altitude":"28100","ground_speed":"455","num_passengers":"332","time_in_flight":"5410"}
{"type":"position","ident":"SAA327","latitude":"-26.03531","longitude":"28.04644","clck":"1442222630","identifier":"SAA327-1442048400-schedule-0000","updatetype":"A","air_ground":"A","facilityHash":"3219c2ba20f92f19e264f7bd55d3284641238610","facilityName":"FlightAware ADS-B","altitude":"11300","ground_speed":"353","num_passengers":"264","time_in_flight":"5633"}
{"type":"position","ident":"JST889","latitude":"-27.52840","longitude":"153.04620","clck":"1442222630","identifier":"JST889-1442044200-schedule-0001:0","updatetype":"A","air_ground":"A","facilityHash":"ce463811152a2aee9a7b2cbfa5af7d179350214a","facilityName":"FlightAware ADS-B","altitude":"2400","ground_speed":"178","num_passengers":"27","time_in_flight":"6064"}
{"type":"position","ident":"SAS586","latitude":"46.09845","longitude":"6.56364","clck":"1442222630","identifier":"SAS586-1442045700-schedule-0000:0","updatetype":"A","air_ground":"A","facilityHash":"3ba9085f049c0225a501a81dd4990fc37777fddc","facilityName":"FlightAware ADS-B","altitude":"34000","ground_speed":"494","num_passengers":"12","time_in_flight":"5320"}
{"type":"position","ident":"AMC515","latitude":"47.02968","longitude":"16.20019","clck":"1442222635","identifier":"AMC515-1442046900-schedule-0000:0","updatetype":"A","air_ground":"A","facilityHash":"c64ec38cfe09841aa272e7f4bb669b94d1c4b261","facilityName":"FlightAware ADS-B","altitude":"29400","ground_speed":"376","num_passengers":"193","time_in_flight":"7224"}
{"type":"position","ident":"BAW333","latitude":"50.15133","longitude":"1.57357","clck":"1442222636","identifier":"BAW333-1442046970-airline-0067:0","updatetype":"A","air_ground":"A","facilityHash":"2a0e8332f2d095f78dfe12a38316c5e0787ecbb0","facilityName":"FlightAware ADS-B","altitude":"24000","ground_speed":"310","num_passengers":"339","time_in_flight":"0673"}
{"type":"position","ident":"JST240","latitude":"-28.43867","longitude":"154.09650","clck":"1442222636","identifier":"JST240-1442036100-schedule-0000:0","updatetype":"A","air_ground":"A","facilityHash":"0ab5c7855b2490ac4188b1ef4fb06da535278d78","facilityName":"FlightAware ADS-B","altitude":"10500","ground_speed":"334","num_passengers":"283","time_in_flight":"215"}
{"type":"position","ident":"JST240","latitude":"-28.43867","longitude":"154.09650","clck":"1442222636","identifier":"JST240-1442036100-schedule-0000:1","updatetype":"A","air_ground":"A","facilityHash":"0ab5c7855b2490ac4188b1ef4fb06da535278d78","facilityName":"FlightAware ADS-B","altitude":"10500","ground_speed":"334","num_passengers":"283","time_in_flight":"215"}
{"type":"position","ident":"JST240","latitude":"-28.43867","longitude":"154.09650","clck":"1442222636","identifier":"JST240-1442036100-schedule-0000:2","updatetype":"A","air_ground":"A","facilityHash":"0ab5c7855b2490ac4188b1ef4fb06da535278d78","facilityName":"FlightAware ADS-B","altitude":"10500","ground_speed":"334","num_passengers":"283","time_in_flight":"215"}
{"type":"position","ident":"VOI903","latitude":"32.36298","longitude":"-115.01810","clck":"1442222636","identifier":"VOI903-1442045400-schedule-0001","updatetype":"A","air_ground":"A","facilityHash":"5f5063e7e35de5b4974bb074b5e92af7869f507b","facilityName":"FlightAware ADS-B","altitude":"35000","ground_speed":"488","num_passengers":"133","time_in_flight":null}
{"type":"position","ident":"BAW2937","latitude":"53.31111","longitude":"-2.94789","clck":"1442222636","identifier":"BAW2937-1442047200-schedule-0001:2","updatetype":"A","air_ground":"A","facilityHash":"3bf5d3402ca9e992ff2543da53262dbf275d9c39","facilityName":"FlightAware ADS-B","altitude":"37000","ground_speed":"440","num_passengers":"163","time_in_flight":"7745"}
{"type":"position","ident":"QFA125","latitude":"-28.83472","longitude":"156.27782","clck":"1442222100","identifier":"QFA125-1442047200-schedule-0000:0","updatetype":"A","air_ground":"A","facilityHash":"0ab5c7855b2490ac4188b1ef4fb06da535278d78","facilityName":"FlightAware ADS-B","altitude":"35000","ground_speed":"500","num_passengers":"116","time_in_flight":"1173"}
{"type":"position","ident":"QFA927","latitude":"-29.16107","longitude":"149.95482","clck":"1442222093","identifier":"QFA927-1442042400-schedule-0002","updatetype":"A","air_ground":"A","facilityHash":"0ab5c7855b2490ac4188b1ef4fb06da535278d78","facilityName":"FlightAware ADS-B","altitude":"39000","ground_speed":"431","num_passengers":"166","time_in_flight":"1016"}
{"type":"position","ident":"DLH2007","latitude":"49.67638","longitude":"9.40683","clck":"1442222100","identifier":"DLH2007-1442046900-schedule-0000:2","updatetype":"A","air_ground":"A","facilityHash":"825715068800560e004ad660adfd314230c5b3f9","facilityName":"FlightAware ADS-B","altitude":"31000","ground_speed":"393","num_passengers":"134","time_in_flight":"1000"}
{"type":"position","ident":"DAL1197","latitude":"33.93489","longitude":"-118.49860","clck":"1442222100","identifier":"DAL1197-1442010540-schedule-0000","updatetype":"A","air_ground":"A","facilityHash":"53aa4f89c6230d77629ca80339519db779687653","facilityName":"FlightAware ADS-B","altitude":"1300","ground_speed":"143","num_passengers":"84","time_in_flight":"1151"}
{"type":"position","ident":"EZY464","latitude":"55.36849","longitude":"-5.24397","clck":"1442222100","identifier":"EZY464-1442047800-schedule-0002:2","updatetype":"A","air_ground":"A","facilityHash":"7a7498a65742de9022be9a16d01e308e2f1e40a9","facilityName":"FlightAware ADS-B","altitude":"16000","ground_speed":"391","num_passengers":"220","time_in_flight":"7633"}
{"type":"position","ident":"AAL51","latitude":"52.60207","longitude":"-1.13081","clck":"1442222101","identifier":"AAL51-1442046600-schedule-0000:2","updatetype":"A","air_ground":"A","facilityHash":"82f402c36dce45ba58a7ec791490b7bb4a7d00ea","facilityName":"FlightAware ADS-B","altitude":"26800","ground_speed":"82","num_passengers":"327","time_in_flight":"7641"}
{"type":"position","ident":"DLH232","latitude":"48.21848","longitude":"8.45470","clck":"1442222097","identifier":"DLH232-1442046600-schedule-0002:0","updatetype":"A","air_ground":"A","facilityHash":"825715068800560e004ad660adfd314230c5b3f9","facilityName":"FlightAware ADS-B","altitude":"33000","ground_speed":"402","num_passengers":"182","time_in_flight":"1000"}
{"type":"position","ident":"RYR15","latitude":"49.73972","longitude":"8.20493","clck":"1442222100","identifier":"RYR15-1442035668-airline-0342:2","updatetype":"A","air_ground":"A","facilityHash":"825715068800560e004ad660adfd314230c5b3f9","facilityName":"FlightAware ADS-B","altitude":"37000","ground_speed":"438","num_passengers":"114","time_in_flight":"0305"}
{"type":"position","ident":"AAL725","latitude":"54.50038","longitude":"-9.17658","clck":"1442222098","identifier":"AAL725-1442046600-schedule-0000:2","updatetype":"A","air_ground":"A","facilityHash":"cf56ce63508da9b20ec9dbb34a613cb9438d588d","facilityName":"FlightAware ADS-B","altitude":"32700","ground_speed":"491","num_passengers":"298","time_in_flight":"6301"}
{"type":"position","ident":"RYR52","latitude":"58.00479","longitude":"12.62613","clck":"1442222105","identifier":"RYR52-1442035668-airline-0143:2","updatetype":"A","air_ground":"A","facilityHash":"d1e36db37ea338e7fff9fc6b3caa76a32c05f87a","facilityName":"FlightAware ADS-B","altitude":"37000","ground_speed":"449","num_passengers":"54","time_in_flight":"3446"}
{"type":"position","ident":"AZA1713","latitude":"40.72055","longitude":"13.26508","clck":"1442222093","identifier":"AZA1713-1442044500-schedule-0000:2","updatetype":"A","air_ground":"A","facilityHash":"8530c0b36fb54ccfc0f26d42f81979a6f5ce08b2","facilityName":"FlightAware ADS-B","altitude":"37000","ground_speed":"440","num_passengers":"162","time_in_flight":"6445"}
{"type":"position","ident":"TAI521","latitude":"31.43053","longitude":"-113.70890","clck":"1442222106","identifier":"TAI521-1442046300-schedule-0002:0","updatetype":"A","air_ground":"A","facilityHash":"86c276a90e21a4df885d00c5556655e36620b0ee","facilityName":"FlightAware ADS-B","altitude":"33000","ground_speed":"499","num_passengers":"120","time_in_flight":null}
{"type":"position","ident":"BAW678","latitude":"48.51744","longitude":"17.42034","clck":"1442222106","identifier":"BAW678-1442037900-schedule-0000:2","updatetype":"A","air_ground":"A","facilityHash":"2c8cee0a84b71656ab75d0067aa00eb3fbf3d59d","facilityName":"FlightAware ADS-B","altitude":"35000","ground_speed":"465","num_passengers":"130","time_in_flight":"0333"}
{"type":"position","ident":"EXS853","latitude":"45.82773","longitude":"8.16090","clck":"1442222106","identifier":"EXS853-1442041200-schedule-0000:2","updatetype":"A","air_ground":"A","facilityHash":"a09448948b16046fa461c54cda3f61c1074b5fa4","facilityName":"FlightAware ADS-B","altitude":"33000","ground_speed":"488","num_passengers":"96","time_in_flight":"4644"}
{"type":"position","ident":"UAL143","latitude":"31.51186","longitude":"-91.84016","clck":"1442222106","identifier":"UAL143-1442005500-schedule-0000","updatetype":"A","air_ground":"A","facilityHash":"57e295a87297503ee80e3a2a25fbd5097a6092ef","facilityName":"FlightAware ADS-B","altitude":"40000","ground_speed":"471","num_passengers":"242","time_in_flight":"2612"}
{"type":"position","ident":"EZY8622","latitude":"49.55020","longitude":"2.19496","clck":"1442222104","identifier":"EZY8622-1442043300-schedule-0000:0","updatetype":"A","air_ground":"A","facilityHash":"d82dea7f15975c684c551815f7033637c5da4a4a","facilityName":"FlightAware ADS-B","altitude":"35500","ground_speed":"461","num_passengers":"328","time_in_flight":"5314"}
{"type":"position","ident":"QFA163","latitude":"-33.94184","longitude":"151.26970","clck":"1442222106","identifier":"QFA163-1442048100-schedule-0000:0","updatetype":"A","air_ground":"A","facilityHash":"aaef551e3acb452c927b2ef56fd1a42bbda09b2c","facilityName":"FlightAware ADS-B","altitude":"3400","ground_speed":"242","num_passengers":"89","time_in_flight":"1444"}
{"type":"position","ident":"TAP562","latitude":"53.17052","longitude":"7.13934","clck":"1442222106","identifier":"TAP562-1442039700-schedule-0000:2","updatetype":"A","air_ground":"A","facilityHash":"780746094c7003d33817415909a2a80c97276f43","facilityName":"FlightAware ADS-B","altitude":"37000","ground_speed":"445","num_passengers":"58","time_in_flight":"2374"}
{"type":"position","ident":"EZY3821","latitude":"48.70766","longitude":"2.23656","clck":"1442222100","identifier":"EZY3821-1442047500-schedule-0000:0","updatetype":"A","air_ground":"A","facilityHash":"b241d6cc8964d6e1df8104e91e9c42716c5a357a","facilityName":"FlightAware ADS-B","altitude":"17700","ground_speed":"337","num_passengers":"148","time_in_flight":"7631"}
{"type":"position","ident":"DAL1542","latitude":"42.84156","longitude":"-89.21912","clck":"1442222100","identifier":"DAL1542-1442123130-airline-0046","updatetype":"A","air_ground":"A","facilityHash":"23857aba97bb40555e0b3f8d5cabed73785a35bc","facilityName":"FlightAware ADS-B","altitude":"35000","ground_speed":"467","num_passengers":"93","time_in_flight":"6011"}
{"type":"position","ident":"RYR1783","latitude":"45.09608","longitude":"-0.74004","clck":"1442222099","identifier":"RYR1783-1442045400-schedule-0000:2","updatetype":"A","air_ground":"A","facilityHash":"f2b389a572b0afe8e14b9f8aafec84c08d94690c","facilityName":"FlightAware ADS-B","altitude":"12900","ground_speed":"335","num_passengers":"17","time_in_flight":"2337"}
{"type":"position","ident":"FFT1114","latitude":"41.16405","longitude":"-93.04989","clck":"1442222100","identifier":"FFT1114-1442037698-airline-0100","updatetype":"A","air_ground":"A","facilityHash":"f2aa8e0e3bf42ef3a2675ca4852c649ac76c96ea","facilityName":"FlightAware ADS-B","altitude":"35000","ground_speed":"463","num_passengers":"80","time_in_flight":"7225"}
{"type":"position","ident":"EZY3904","latitude":"48.89250","longitude":"2.67102","clck":"1442222112","identifier":"EZY3904-1442043000-schedule-0001:2","updatetype":"A","air_ground":"A","facilityHash":"a5a1fcfddf86ebcf9f788a44f6f2b89baf2c2b12","facilityName":"FlightAware ADS-B","altitude":"10000","ground_speed":"292","num_passengers":"90","time_in_flight":"1021"}
{"type":"position","ident":"JST268","latitude":"-37.01289","longitude":"174.88070","clck":"1442222112","identifier":"JST268-1442046000-schedule-0001:0","updatetype":"A","air_ground":"A","facilityHash":"d27b936307cc746b73d704c769e75415633886c9","facilityName":"FlightAware ADS-B","altitude":"1100","ground_speed":"139","num_passengers":"334","time_in_flight":"5622"}
{"type":"position","ident":"HLM1","latitude":"-35.89728","longitude":"174.36520","clck":"1442222112","identifier":"HLM1-1442219920-368-0","updatetype":"A","air_ground":"A","facilityHash":"06fa9c23d7eb684e429b96f6911156bbf1ea1d4d","facilityName":"FlightAware ADS-B","altitude":"3600","ground_speed":"161","num_passengers":"160","time_in_flight":"5765"}
{"type":"position","ident":"RYR1974","latitude":"53.19058","longitude":"-0.65887","clck":"1442222112","identifier":"RYR1974-1442046600-schedule-0000:0","updatetype":"A","air_ground":"A","facilityHash":"3581ca913c3315dc28e30e9f4cb07a63c298ae29","facilityName":"FlightAware ADS-B","altitude":"35000","ground_speed":"432","num_passengers":"100","time_in_flight":"2232"}
{"type":"position","ident":"ACA6","latitude":"35.88432","longitude":"140.90400","clck":"1442222105","identifier":"ACA6-1442038752-airline-0026","updatetype":"A","air_ground":"A","facilityHash":"9e9b3d12c17ddb5e5ebd6528e1e703c0ff949059","facilityName":"FlightAware ADS-B","altitude":"26000","ground_speed":"574","num_passengers":"90","time_in_flight":"6114"}
{"type":"position","ident":"EZY5244","latitude":"40.33878","longitude":"10.52423","clck":"1442222104","identifier":"EZY5244-1442045700-schedule-0000:0","updatetype":"A","air_ground":"A","facilityHash":"d0cb093dd2870e083c46f4a021db0e5738cf9f57","facilityName":"FlightAware ADS-B","altitude":"36000","ground_speed":"415","num_passengers":"317","time_in_flight":"1255"}
{"type":"position","ident":"JAF1454","latitude":"48.29906","longitude":"1.19556","clck":"1442222105","identifier":"JAF1454-1442043900-schedule-0001:2","updatetype":"A","air_ground":"A","facilityHash":"e624c99caaec37eb464e50792eb5d0633d1b9382","facilityName":"FlightAware ADS-B","altitude":"34000","ground_speed":"339","num_passengers":"194","time_in_flight":"5355"}
{"type":"position","ident":"EZY8765","latitude":"38.46721","longitude":"23.67775","clck":"1442222105","identifier":"EZY8765-1442036400-schedule-0001:0","updatetype":"A","air_ground":"A","facilityHash":"f5ccb44853340cc87903408db6850b40f3657e1d","facilityName":"FlightAware ADS-B","altitude":"35000","ground_speed":"442","num_passengers":"144","time_in_flight":"4774"}
{"type":"position","ident":"AAL2020","latitude":"35.90937","longitude":"-84.74854","clck":"1442222105","identifier":"AAL2020-1442124351-37-1","updatetype":"A","air_ground":"A","facilityHash":"3b892bd57686d3ec88da6b1911f925ded11c0639","facilityName":"FlightAware ADS-B","altitude":"31000","ground_speed":"475","num_passengers":"90","time_in_flight":"0721"}
{"type":"position","ident":"UAL1614","latitude":"33.00385","longitude":"-111.41020","clck":"1442222105","identifier":"UAL1614-1442044500-schedule-0000","updatetype":"A","air_ground":"A","facilityHash":"98d56a50cf85af36f02b831963467cd05c4a79b5","facilityName":"FlightAware ADS-B","altitude":"36000","ground_speed":"499","num_passengers":"97","time_in_flight":"1062"}
{"type":"position","ident":"UAL963","latitude":"54.72720","longitude":"10.89448","clck":"1442222105","identifier":"UAL963-1442035168-airline-0114:0","updatetype":"A","air_ground":"A","facilityHash":"40f917afc505228735f67ffc5f1370e047856218","facilityName":"FlightAware ADS-B","altitude":"32000","ground_speed":"503","num_passengers":"302","time_in_flight":"2022"}
{"type":"position","ident":"BAW162","latitude":"51.60762","longitude":"-0.28603","clck":"1442222119","identifier":"BAW162-1442032200-schedule-0000:0","updatetype":"A","air_ground":"A","facilityHash":"dbee4f34843ad183156897c9f4cbe42d0619ac79","facilityName":"FlightAware ADS-B","altitude":"8000","ground_speed":"235","num_passengers":"263","time_in_flight":"4744"}
{"type":"position","ident":"AFR1722","latitude":"47.58714","longitude":"9.52303","clck":"1442222118","identifier":"AFR1722-1442045700-schedule-0001:2","updatetype":"A","air_ground":"A","facilityHash":"50a8eb38e9959fc5133e9f3ea5a70c30ac3681d7","facilityName":"FlightAware ADS-B","altitude":"28000","ground_speed":"440","num_passengers":"90","time_in_flight":"1000"}
{"type":"position","ident":"FDX55","latitude":"32.87072","longitude":"-90.07982","clck":"1442222118","identifier":"FDX55-1442206569-1-0","updatetype":"A","air_ground":"A","facilityHash":"a8de1ad12f1c9e25a245b58800769c902d9a8509","facilityName":"FlightAware ADS-B","altitude":"34000","ground_speed":"464","num_passengers":"180","time_in_flight":"5646"}
{"type":"position","ident":"AAL71","latitude":"53.19031","longitude":"2.15552","clck":"1442222113","identifier":"AAL71-1442042400-schedule-0001:0","updatetype":"A","air_ground":"A","facilityHash":"4ce9a20149f094f0bb720d8eebb8abb9e942c49e","facilityName":"FlightAware ADS-B","altitude":"34000","ground_speed":"503","num_passengers":"312","time_in_flight":"120"}
{"type":"position","ident":"DAL62","latitude":"51.76414","longitude":"-2.54356","clck":"1442222118","identifier":"DAL62-1442047200-schedule-0000:0","updatetype":"A","air_ground":"A","facilityHash":"d05a6fa36770c717bef164d6a5890813080be7e5","facilityName":"FlightAware ADS-B","altitude":"24600","ground_speed":"467","num_passengers":"286","time_in_flight":"7755"}
{"type":"position","ident":"GWI2966","latitude":"48.64997","longitude":"9.08244","clck":"1442222119","identifier":"GWI2966-1442048700-schedule-0000:0","updatetype":"A","air_ground":"A","facilityHash":"1a0b759b8a34614bfadc27340da4c00a41f1a86b","facilityName":"FlightAware ADS-B","altitude":"6500","ground_speed":"228","num_passengers":"213","time_in_flight":"2143"}
{"type":"position","ident":"UAL48","latitude":"52.03083","longitude":"38.61891","clck":"1442222119","identifier":"UAL48-1442017500-schedule-0000","updatetype":"A","air_ground":"A","facilityHash":"3b96ebf68f26d675047e45900f130ca3439cb0ee","facilityName":"FlightAware ADS-B","altitude":"37000","ground_speed":"475","num_passengers":"119","time_in_flight":"6212"}
{"type":"position","ident":"AFR7641","latitude":"46.92447","longitude":"4.63524","clck":"1442222113","identifier":"AFR7641-1442047800-schedule-0000:0","updatetype":"A","air_ground":"A","facilityHash":"a8475d71cdd0ffd674df219747d04db52291cba8","facilityName":"FlightAware ADS-B","altitude":"28000","ground_speed":"433","num_passengers":"340","time_in_flight":"1000"}
{"type":"position","ident":"BEL3801","latitude":"50.27567","longitude":"3.46218","clck":"1442222113","identifier":"BEL3801-1442046600-schedule-0000:0","updatetype":"A","air_ground":"A","facilityHash":"e351cc21af290a2d3bd605575e1b8743cb947a07","facilityName":"FlightAware ADS-B","altitude":"26600","ground_speed":"616","num_passengers":"232","time_in_flight":"7117"}
{"type":"position","ident":"BEL3801","latitude":"50.27567","longitude":"3.46218","clck":"1442222113","identifier":"BEL3801-1442046600-schedule-0000:2","updatetype":"A","air_ground":"A","facilityHash":"e351cc21af290a2d3bd605575e1b8743cb947a07","facilityName":"FlightAware ADS-B","altitude":"26600","ground_speed":"616","num_passengers":"232","time_in_flight":"7117"}
{"type":"position","ident":"VRD170","latitude":"39.81166","longitude":"-98.41223","clck":"1442222113","identifier":"VRD170-1442126145-153-0","updatetype":"A","air_ground":"A","facilityHash":"b1e45be9bfa5738b5a1bfdb1c42f76679e17e3b1","facilityName":"FlightAware ADS-B","altitude":"37000","ground_speed":"498","num_passengers":"77","time_in_flight":"7203"}
{"type":"position","ident":"AAL1657","latitude":"34.87130","longitude":"-105.94290","clck":"1442222113","identifier":"AAL1657-1442044740-schedule-0001","updatetype":"A","air_ground":"A","facilityHash":"efcc93a09727efaaab41d1f49d7e53df0af3aec6","facilityName":"FlightAware ADS-B","altitude":"35000","ground_speed":"484","num_passengers":"96","time_in_flight":"1060"}
{"type":"position","ident":"DAL231","latitude":"53.04260","longitude":"2.94857","clck":"1442222123","identifier":"DAL231-1442046900-schedule-0001:0","updatetype":"A","air_ground":"A","facilityHash":"4a6d4bae6555e8ce3b7222a572cd580278d585f7","facilityName":"FlightAware ADS-B","altitude":"24300","ground_speed":"733","num_passengers":"301","time_in_flight":"2176"}
{"type":"position","ident":"DLH1215","latitude":"46.33912","longitude":"6.14218","clck":"1442222125","identifier":"DLH1215-1442048400-schedule-0000:0","updatetype":"A","air_ground":"A","facilityHash":"4c59899798187ff81e962523a47ba6d8e151d137","facilityName":"FlightAware ADS-B","altitude":"10400","ground_speed":"338","num_passengers":"46","time_in_flight":"1000"}
{"type":"position","ident":"DLH453","latitude":"54.13546","longitude":"-11.67984","clck":"1442222125","identifier":"DLH453-1442016300-schedule-0000:2","updatetype":"A","air_ground":"A","facilityHash":"23d76c725da73825990d23598fd78589e6858d43","facilityName":"FlightAware ADS-B","altitude":"39000","ground_speed":"486","num_passengers":"115","time_in_flight":"0750"}
{"type":"position","ident":"BEL1453","latitude":"50.57382","longitude":"3.85772","clck":"1442222113","identifier":"BEL1453-1442206690-ed-0002:0","updatetype":"A","air_ground":"A","facilityHash":"ef87a2ba6429f5f64be0c66f86fb984852f853a3","facilityName":"FlightAware ADS-B","altitude":"15600","ground_speed":"350","num_passengers":"227","time_in_flight":"7124"}
{"type":"position","ident":"AAL1965","latitude":"36.02990","longitude":"-106.41150","clck":"1442222125","identifier":"AAL1965-1442043600-schedule-0000","updatetype":"A","air_ground":"A","facilityHash":"cf9e2b26c5d18f968621dbaff80f2a6349995202","facilityName":"FlightAware ADS-B","altitude":"33000","ground_speed":"476","num_passengers":"83","time_in_flight":"7313"}
{"type":"position","ident":"UAL1533","latitude":"40.84051","longitude":"-88.83507","clck":"1442222125","identifier":"UAL1533-1441955190-airline-0085","updatetype":"A","air_ground":"A","facilityHash":"c4e20ae39b4d8f66310608b6e6733ff52b4a054d","facilityName":"FlightAware ADS-B","altitude":"39000","ground_speed":"487","num_passengers":"95","time_in_flight":"3327"}
{"type":"position","ident":"GWI7782","latitude":"48.83106","longitude":"17.21088","clck":"1442222123","identifier":"GWI7782-1442044500-schedule-0000:0","updatetype":"A","air_ground":"A","facilityHash":"3e35746c816ba26f5f8841cd3fe8e5a6c1cd19ed","facilityName":"FlightAware ADS-B","altitude":"31000","ground_speed":"468","num_passengers":"135","time_in_flight":"6432"}
{"type":"position","ident":"AAL1116","latitude":"34.81619","longitude":"-95.69567","clck":"1442222129","identifier":"AAL1116-1442103939-airline-0065","updatetype":"A","air_ground":"A","facilityHash":"bc6ebcc024d5931506ce94d721fbf5681ed9b531","facilityName":"FlightAware ADS-B","altitude":"39100","ground_speed":"543","num_passengers":"86","time_in_flight":"7344"}
{"type":"position","ident":"DLH2471","latitude":"50.34694","longitude":"6.58371","clck":"1442222129","identifier":"DLH2471-1442045100-schedule-0000:2","updatetype":"A","air_ground":"A","facilityHash":"dfd23329afbeb90e167013c3c3cef7093cd92aca","facilityName":"FlightAware ADS-B","altitude":"37000","ground_speed":"451","num_passengers":"106","time_in_flight":"0367"}
{"type":"position","ident":"EZY7142","latitude":"43.84726","longitude":"0.76732","clck":"1442222130","identifier":"EZY7142-1442046000-schedule-0000:0","updatetype":"A","air_ground":"A","facilityHash":"e16ea35c5b52aa506054a3e89efc9e0b8bc85b85","facilityName":"FlightAware ADS-B","altitude":"38000","ground_speed":"444","num_passengers":"350","time_in_flight":"5326"}
{"type":"position","ident":"BAW548","latitude":"45.42474","longitude":"6.72243","clck":"1442222117","identifier":"BAW548-1442043000-schedule-0001:2","updatetype":"A","air_ground":"A","facilityHash":"cc3cb0ca2dcc5a47230e03cb415add0713040b65","facilityName":"FlightAware ADS-B","altitude":"35100","ground_speed":"483","num_passengers":"136","time_in_flight":"302"}
{"type":"position","ident":"TAP574","latitude":"45.45928","longitude":"5.24269","clck":"1442222116","identifier":"TAP574-1442042700-schedule-0000","updatetype":"A","air_ground":"A","facilityHash":"cc3cb0ca2dcc5a47230e03cb415add0713040b65","facilityName":"FlightAware ADS-B","altitude":"38000","ground_speed":"516","num_passengers":"64","time_in_flight":"2334"}
{"type":"position","ident":"SDM6273","latitude":"47.50470","longitude":"11.93074","clck":"1442222118","identifier":"SDM6273-1442040000-schedule-0000:2","updatetype":"A","air_ground":"A","facilityHash":"a668c20f1d0e77ea7af4c66de68441e34df7b759","facilityName":"FlightAware ADS-B","altitude":"34000","ground_speed":"367","num_passengers":"198","time_in_flight":"6044"}
{"type":"position","ident":"QJE1721","latitude":"-23.82641","longitude":"151.23890","clck":"1442222118","identifier":"QJE1721-1442178765-airline-0059:0","updatetype":"A","air_ground":"A","facilityHash":"e8de151f879075888f59527ab660a3a7d2d1208a","facilityName":"FlightAware ADS-B","altitude":"5900","ground_speed":"246","num_passengers":"277","time_in_flight":"4534"}
{"type":"position","ident":"QJE1721","latitude":"-23.82641","longitude":"151.23890","clck":"1442222118","identifier":"QJE1721-1442178765-airline-0059","updatetype":"A","air_ground":"A","facilityHash":"e8de151f879075888f59527ab660a3a7d2d1208a","facilityName":"FlightAware ADS-B","altitude":"5900","ground_speed":"246","num_passengers":"277","time_in_flight":"4534"}
{"type":"position","ident":"GMI1941","latitude":"53.68291","longitude":"10.46346","clck":"1442222119","identifier":"GMI1941-1442185507-airline-0172:0","updatetype":"A","air_ground":"A","facilityHash":"ad95cbad09a7704e6e30e655ee4ff6bcac6668c0","facilityName":"FlightAware ADS-B","altitude":"4300","ground_speed":"281","num_passengers":"312","time_in_flight":"3263"}
{"type":"position","ident":"DAL170","latitude":"50.39694","longitude":"2.14152","clck":"1442222123","identifier":"DAL170-1442046900-schedule-0000:2","updatetype":"A","air_ground":"A","facilityHash":"8d67f7be9c1c85843588a5896a0653a56c3215a5","facilityName":"FlightAware ADS-B","altitude":"23400","ground_speed":"441","num_passengers":"329","time_in_flight":"7551"}
{"type":"position","ident":"EZY8823","latitude":"35.93712","longitude":"14.37836","clck":"1442222123","identifier":"EZY8823-1442036400-schedule-0000:0","updatetype":"A","air_ground":"A","facilityHash":"fcdf4854370fc4811b8a8da0e82a2330c2170d7e","facilityName":"FlightAware ADS-B","altitude":"2300","ground_speed":"171","num_passengers":"134","time_in_flight":"0215"}
{"type":"position","ident":"EZY8823","latitude":"35.93712","longitude":"14.37836","clck":"1442222123","identifier":"EZY8823-1442036400-schedule-0000:2","updatetype":"A","air_ground":"A","facilityHash":"fcdf4854370fc4811b8a8da0e82a2330c2170d7e","facilityName":"FlightAware ADS-B","altitude":"2300","ground_speed":"171","num_passengers":"134","time_in_flight":"0215"}
{"type":"position","ident":"RPA4256","latitude":"34.25729","longitude":"-84.57797","clck":"1442222123","identifier":"RPA4256-1442048400-schedule-0000","updatetype":"A","air_ground":"A","facilityHash":"d33ae05c98861ab721ffb1fbaf535d674342109a","facilityName":"FlightAware ADS-B","altitude":"19600","ground_speed":"387","num_passengers":"335","time_in_flight":"3124"}
{"type":"position","ident":"VOZ973","latitude":"-29.66798","longitude":"152.97981","clck":"1442222131","identifier":"VOZ973-1442044800-schedule-0000:0","updatetype":"A","air_ground":"A","facilityHash":"0ab5c7855b2490ac4188b1ef4fb06da535278d78","facilityName":"FlightAware ADS-B","altitude":"37600","ground_speed":"465","num_passengers":"17","time_in_flight":"1303"}
{"type":"position","ident":"VOZ973","latitude":"-29.66798","longitude":"152.97981","clck":"1442222131","identifier":"VOZ973-1442044800-schedule-0000","updatetype":"A","air_ground":"A","facilityHash":"0ab5c7855b2490ac4188b1ef4fb06da535278d78","facilityName":"FlightAware ADS-B","altitude":"37600","ground_speed":"465","num_passengers":"17","time_in_flight":"1303"}
{"type":"position","ident":"JST421","latitude":"-28.33978","longitude":"153.43844","clck":"1442222131","identifier":"JST421-1442048400-schedule-0000:0","updatetype":"A","air_ground":"A","facilityHash":"0ab5c7855b2490ac4188b1ef4fb06da535278d78","facilityName":"FlightAware ADS-B","altitude":"8200","ground_speed":"285","num_passengers":"237","time_in_flight":"1160"}
{"type":"position","ident":"JST421","latitude":"-28.33978","longitude":"153.43844","clck":"1442222131","identifier":"JST421-1442048400-schedule-0000","updatetype":"A","air_ground":"A","facilityHash":"0ab5c7855b2490ac4188b1ef4fb06da535278d78","facilityName":"FlightAware ADS-B","altitude":"8200","ground_speed":"285","num_passengers":"237","time_in_flight":"1160"}
{"type":"position","ident":"EIN711","latitude":"51.85904","longitude":"-3.94513","clck":"1442222134","identifier":"EIN711-1442046600-schedule-0004:0","updatetype":"A","air_ground":"A","facilityHash":"aa3cacd5acecef1d11509948b3884a688d9c55f9","facilityName":"FlightAware ADS-B","altitude":"36000","ground_speed":"445","num_passengers":"275","time_in_flight":"4460"}
{"type":"position","ident":"DAL15","latitude":"52.71389","longitude":"3.65107","clck":"1442222134","identifier":"DAL15-1442046600-schedule-0001:0","updatetype":"A","air_ground":"A","facilityHash":"b917b64a90163d80a5de6f158de78e07d29f0c5d","facilityName":"FlightAware ADS-B","altitude":"30000","ground_speed":"497","num_passengers":"311","time_in_flight":"2504"}
{"type":"position","ident":"AMC515","latitude":"47.82564","longitude":"16.45512","clck":"1442222135","identifier":"AMC515-1442046900-schedule-0000:0","updatetype":"A","air_ground":"A","facilityHash":"8092078f26317cc4b0542d183be20e95c681df45","facilityName":"FlightAware ADS-B","altitude":"12400","ground_speed":"311","num_passengers":"193","time_in_flight":"7224"}
{"type":"position","ident":"EZY5382","latitude":"50.69120","longitude":"6.27922","clck":"1442222124","identifier":"EZY5382-1442043600-schedule-0000:2","updatetype":"A","air_ground":"A","facilityHash":"ea5fef40ad4a7eecb0fac8e53d7af9c1f8ea17d6","facilityName":"FlightAware ADS-B","altitude":"38000","ground_speed":"465","num_passengers":"288","time_in_flight":"4130"}
{"type":"position","ident":"RYR6119","latitude":"48.13683","longitude":"1.13870","clck":"1442222124","identifier":"RYR6119-1442036700-schedule-0000:0","updatetype":"A","air_ground":"A","facilityHash":"985ab3ec74db8613abe13ff0274496b7f8b8b2db","facilityName":"FlightAware ADS-B","altitude":"38000","ground_speed":"487","num_passengers":"45","time_in_flight":"2345"}
{"type":"position","ident":"EXS197","latitude":"41.75047","longitude":"2.06406","clck":"1442222124","identifier":"EXS197-1442041200-schedule-0000:2","updatetype":"A","air_ground":"A","facilityHash":"951fae821b20118ef986a8a40e8fed5f4e5fa644","facilityName":"FlightAware ADS-B","altitude":"33000","ground_speed":"417","num_passengers":"175","time_in_flight":"7710"}
{"type":"position","ident":"VOZ241","latitude":"-36.69022","longitude":"141.65200","clck":"1442222124","identifier":"VOZ241-1442046900-schedule-0001:0","updatetype":"A","air_ground":"A","facilityHash":"fbc4dd4f9444e9dc0ea930fdceeba9e013307330","facilityName":"FlightAware ADS-B","altitude":"40000","ground_speed":"406","num_passengers":"292","time_in_flight":"4071"}
{"type":"position","ident":"BCY118","latitude":"51.72144","longitude":"0.65064","clck":"1442222135","identifier":"BCY118-1442039400-schedule-0000:2","updatetype":"A","air_ground":"A","facilityHash":"7e283589b6cd91b22c8d79cf47c84712e8d6505a","facilityName":"FlightAware ADS-B","altitude":"5600","ground_speed":"200","num_passengers":"168","time_in_flight":"7670"}
{"type":"position","ident":"SWR400","latitude":"53.62271","longitude":"-5.93654","clck":"1442222135","identifier":"SWR400-1442042100-schedule-0000:0","updatetype":"A","air_ground":"A","facilityHash":"f35e1842e58e79c17b541f43c85dffa0728f5f10","facilityName":"FlightAware ADS-B","altitude":"18100","ground_speed":"349","num_passengers":"258","time_in_flight":"3033"}
{"type":"position","ident":"DLH178","latitude":"49.99155","longitude":"8.48383","clck":"1442222135","identifier":"DLH178-1442043900-schedule-0001:2","updatetype":"A","air_ground":"A","facilityHash":"a5f4b53ae3b48da61c26c1d439adaf75b6127492","facilityName":"FlightAware ADS-B","altitude":"4000","ground_speed":"192","num_passengers":"196","time_in_flight":"5146"}
{"type":"position","ident":"EZY8781","latitude":"45.14203","longitude":"12.47886","clck":"1442222078","identifier":"EZY8781-1442041200-schedule-0000:2","updatetype":"A","air_ground":"A","facilityHash":"73876181e2a1cb07fca758118e2dd77004f83dd0","facilityName":"FlightAware ADS-B","altitude":"37000","ground_speed":"462","num_passengers":"122","time_in_flight":"0572"}
{"type":"position","ident":"AUA643","latitude":"44.29839","longitude":"25.87673","clck":"1442222127","identifier":"AUA643-1442044500-schedule-0001","updatetype":"A","air_ground":"A","facilityHash":"578596f845e45955522d3450f4c577ce5e25ef99","facilityName":"FlightAware ADS-B","altitude":"35000","ground_speed":"468","num_passengers":"119","time_in_flight":"7141"}
{"type":"position","ident":"NAX4487","latitude":"52.63673","longitude":"19.23981","clck":"1442222127","identifier":"NAX4487-1442044800-schedule-0001:6","updatetype":"A","air_ground":"A","facilityHash":"081499fbadc94800ace64fc9ae61b77aff81def4","facilityName":"FlightAware ADS-B","altitude":"37000","ground_speed":"437","num_passengers":"163","time_in_flight":"4526"}
{"type":"position","ident":"SXS185","latitude":"37.52660","longitude":"30.09066","clck":"1442222130","identifier":"SXS185-1442037000-schedule-0000","updatetype":"A","air_ground":"A","facilityHash":"6c4be7cf79b3f3f91a3b2c0c54c97232be55d275","facilityName":"FlightAware ADS-B","altitude":"22900","ground_speed":"401","num_passengers":"136","time_in_flight":"7653"}
{"type":"position","ident":"JST524","latitude":"-35.76962","longitude":"147.74930","clck":"1442222130","identifier":"JST524-1442177950-airline-0010:0","updatetype":"A","air_ground":"A","facilityHash":"cc3d3ee10ecf50ef7c90182efad01580a1bd1456","facilityName":"FlightAware ADS-B","altitude":"37000","ground_speed":"515","num_passengers":"53","time_in_flight":"4377"}
{"type":"position","ident":"RYR6619","latitude":"54.12918","longitude":"13.68120","clck":"1442222138","identifier":"RYR6619-1442047500-schedule-0001:0","updatetype":"A","air_ground":"A","facilityHash":"c6af4625289ebe58ed4eabfceb194f17719cacf2","facilityName":"FlightAware ADS-B","altitude":"36000","ground_speed":"449","num_passengers":"313","time_in_flight":"6646"}
{"type":"position","ident":"KLM947","latitude":"54.55177","longitude":"-5.36308","clck":"1442222139","identifier":"KLM947-1442217993-ed-0070:0","updatetype":"A","air_ground":"A","facilityHash":"b6ba3fb67804236bd9f5bea84252ca6d7d4132b7","facilityName":"FlightAware ADS-B","altitude":"12900","ground_speed":"357","num_passengers":"307","time_in_flight":"7337"}
{"type":"position","ident":"EZY1701","latitude":"48.81926","longitude":"1.86725","clck":"1442222135","identifier":"EZY1701-1442046000-schedule-0000:0","updatetype":"A","air_ground":"A","facilityHash":"d7f6026246d178fc7803acd8efb877e0d7c29e82","facilityName":"FlightAware ADS-B","altitude":"29000","ground_speed":"436","num_passengers":"29","time_in_flight":"1000"}
{"type":"position","ident":"UAL991","latitude":"52.98143","longitude":"-0.82787","clck":"1442222139","identifier":"UAL991-1442035149-airline-0029","updatetype":"A","air_ground":"A","facilityHash":"b8c3d712e03a143a982f4f2006cc12d5389da3f6","facilityName":"FlightAware ADS-B","altitude":"30000","ground_speed":"495","num_passengers":"331","time_in_flight":"646"}
{"type":"position","ident":"EZY8916","latitude":"41.86061","longitude":"-8.03431","clck":"1442222130","identifier":"EZY8916-1442046000-schedule-0000:0","updatetype":"A","air_ground":"A","facilityHash":"5a8bca33ca17d1e5021d4f9678d02c5a0c622452","facilityName":"FlightAware ADS-B","altitude":"36000","ground_speed":"462","num_passengers":"18","time_in_flight":"5424"}
{"type":"position","ident":"QFA783","latitude":"-34.67560","longitude":"139.46000","clck":"1442222130","identifier":"QFA783-1442042700-schedule-0001","updatetype":"A","air_ground":"A","facilityHash":"6f86828e1b27c9b2c5c6cf8420ea07295dfa5b3f","facilityName":"FlightAware ADS-B","altitude":"14500","ground_speed":"282","num_passengers":"266","time_in_flight":"3763"}
{"type":"position","ident":"BAW2937","latitude":"54.31622","longitude":"-3.27998","clck":"1442222124","identifier":"BAW2937-1442047200-schedule-0001:2","updatetype":"A","air_ground":"A","facilityHash":"2826483ddd122ac8a2e7c23ae90b75fd9048fb01","facilityName":"FlightAware ADS-B","altitude":"37000","ground_speed":"425","num_passengers":"162","time_in_flight":"7745"}
{"type":"position","ident":"AMC306","latitude":"47.62815","longitude":"11.31923","clck":"1442222130","identifier":"AMC306-1442042700-schedule-0001:2","updatetype":"A","air_ground":"A","facilityHash":"208bea21f2692f5a082e2ac4a535cfc1bab70f41","facilityName":"FlightAware ADS-B","altitude":"19500","ground_speed":"371","num_passengers":"2","time_in_flight":"1150"}
{"type":"position","ident":"DAL295","latitude":"35.18793","longitude":"135.83810","clck":"1442222128","identifier":"DAL295-1442045100-schedule-0000","updatetype":"A","air_ground":"A","facilityHash":"d932f150a344d250c27e51fe010f11d324e6bfee","facilityName":"FlightAware ADS-B","altitude":"34000","ground_speed":"432","num_passengers":"261","time_in_flight":null}
{"type":"position","ident":"EZY1673","latitude":"46.05084","longitude":"-0.08193","clck":"1442222131","identifier":"EZY1673-1442046000-schedule-0000:0","updatetype":"A","air_ground":"A","facilityHash":"f2b389a572b0afe8e14b9f8aafec84c08d94690c","facilityName":"FlightAware ADS-B","altitude":"32000","ground_speed":"335","num_passengers":"284","time_in_flight":"1000"}
{"type":"position","ident":"SXD2879","latitude":"45.87941","longitude":"-2.60282","clck":"1442222131","identifier":"SXD2879-1442043600-schedule-0000:2","updatetype":"A","air_ground":"A","facilityHash":"f2b389a572b0afe8e14b9f8aafec84c08d94690c","facilityName":"FlightAware ADS-B","altitude":"35000","ground_speed":"394","num_passengers":"222","time_in_flight":"2544"}
{"type":"position","ident":"BEL3667","latitude":"50.87283","longitude":"4.30931","clck":"1442222144","identifier":"BEL3667-1442043600-schedule-0000:0","updatetype":"A","air_ground":"A","facilityHash":"de830e88bb0bf54b1213fee60671a5a962d1288d","facilityName":"FlightAware ADS-B","altitude":"4800","ground_speed":"168","num_passengers":"225","time_in_flight":"1000"}
{"type":"position","ident":"ACA93","latitude":"43.16345","longitude":"-79.34077","clck":"1442222145","identifier":"ACA93-1441987552-airline-0038","updatetype":"A","air_ground":"A","facilityHash":"ce9e668ff3f043f4bb0f5eaa2062d754acc2822b","facilityName":"FlightAware ADS-B","altitude":"13800","ground_speed":"334","num_passengers":"356","time_in_flight":null}
{"type":"position","ident":"AUA272","latitude":"49.80964","longitude":"15.54135","clck":"1442222144","identifier":"AUA272-1442046300-schedule-0001:0","updatetype":"A","air_ground":"A","facilityHash":"3e35746c816ba26f5f8841cd3fe8e5a6c1cd19ed","facilityName":"FlightAware ADS-B","altitude":"33000","ground_speed":"432","num_passengers":"145","time_in_flight":"6425"}
{"type":"position","ident":"AUA176","latitude":"50.79222","longitude":"14.29336","clck":"1442222143","identifier":"AUA176-1442046000-schedule-0000:0","updatetype":"A","air_ground":"A","facilityHash":"39b482cf9920cae37875886b16cbfec276006a28","facilityName":"FlightAware ADS-B","altitude":"37000","ground_speed":"446","num_passengers":"136","time_in_flight":"6435"}
{"type":"position","ident":"EZY3962","latitude":"47.82573","longitude":"1.06924","clck":"1442222145","identifier":"EZY3962-1442046600-schedule-0000:0","updatetype":"A","air_ground":"A","facilityHash":"985ab3ec74db8613abe13ff0274496b7f8b8b2db","facilityName":"FlightAware ADS-B","altitude":"25800","ground_speed":"430","num_passengers":"21","time_in_flight":"1000"}
{"type":"position","ident":"DLH1126","latitude":"49.89468","longitude":"8.53334","clck":"1442222145","identifier":"DLH1126-1442044200-schedule-0002:0","updatetype":"A","air_ground":"A","facilityHash":"3f459aa92e66bd6d7da6f7123ba032a35fa68bb9","facilityName":"FlightAware ADS-B","altitude":"4700","ground_speed":"253","num_passengers":"177","time_in_flight":"0635"}
{"type":"position","ident":"RYR6937","latitude":"43.68807","longitude":"10.39867","clck":"1442222135","identifier":"RYR6937-1442044500-schedule-0000:0","updatetype":"A","air_ground":"A","facilityHash":"73876181e2a1cb07fca758118e2dd77004f83dd0","facilityName":"FlightAware ADS-B","altitude":null,"ground_speed":"82","num_passengers":"37","time_in_flight":"5104"}
{"type":"position","ident":"AZA544","latitude":"43.71185","longitude":"10.85907","clck":"1442222135","identifier":"AZA544-1442048400-schedule-0000:2","updatetype":"A","air_ground":"A","facilityHash":"73876181e2a1cb07fca758118e2dd77004f83dd0","facilityName":"FlightAware ADS-B","altitude":"17400","ground_speed":"374","num_passengers":"22","time_in_flight":"0206"}
{"type":"position","ident":"BAW233","latitude":"53.85126","longitude":"8.43233","clck":"1442222135","identifier":"BAW233-1442044500-schedule-0000:2","updatetype":"A","air_ground":"A","facilityHash":"6d52d7a0842bb20f718a474dd8ea20f07ac087d0","facilityName":"FlightAware ADS-B","altitude":"37000","ground_speed":"431","num_passengers":"62","time_in_flight":null}
{"type":"position","ident":"KLM1060","latitude":"51.59296","longitude":"-2.67693","clck":"1442222135","identifier":"KLM1060-1442189460-ed-0002:2","updatetype":"A","air_ground":"A","facilityHash":"951e12ff45b74b8c984ac82b5e61ece607f7adeb","facilityName":"FlightAware ADS-B","altitude":"17200","ground_speed":"348","num_passengers":"72","time_in_flight":"2017"}
{"type":"position","ident":"TSC724","latitude":"56.17273","longitude":"-5.31314","clck":"1442222134","identifier":"TSC724-1442028600-schedule-0000:0","updatetype":"A","air_ground":"A","facilityHash":"c067614515d09ec688148fda7aa5a8fb68079f95","facilityName":"FlightAware ADS-B","altitude":"10500","ground_speed":"332","num_passengers":"111","time_in_flight":"5443"}
{"type":"position","ident":"AFR1160","latitude":"51.60921","longitude":"3.90602","clck":"1442222136","identifier":"AFR1160-1442045700-schedule-0000:0","updatetype":"A","air_ground":"A","facilityHash":"9a3fc7514d1ffabc6bc8bec4371a79db87e5e975","facilityName":"FlightAware ADS-B","altitude":"16000","ground_speed":"377","num_passengers":"24","time_in_flight":"1000"}
{"type":"position","ident":"IBS3942","latitude":"28.84698","longitude":"-15.85112","clck":"1442222136","identifier":"IBS3942-1442040300-schedule-0001:0","updatetype":"A","air_ground":"A","facilityHash":"103fb749ebd95e1f730cca4932d04af517ce1699","facilityName":"FlightAware ADS-B","altitude":"9800","ground_speed":"303","num_passengers":"207","time_in_flight":"4557"}
{"type":"position","ident":"TAM3297","latitude":"-29.96828","longitude":"-51.23296","clck":"1442222136","identifier":"TAM3297-1442048400-schedule-0000","updatetype":"A","air_ground":"A","facilityHash":"6a67706c2517033ab8f0c8a30b8395f1f40500cd","facilityName":"FlightAware ADS-B","altitude":"3100","ground_speed":"180","num_passengers":"30","time_in_flight":null}
{"type":"position","ident":"GLO1695","latitude":"-22.67364","longitude":"-43.47336","clck":"1442222136","identifier":"GLO1695-1442046960-schedule-0000","updatetype":"A","air_ground":"A","facilityHash":"9822695943f6f73cafd0019d436681f7af72bb1e","facilityName":"FlightAware ADS-B","altitude":"5000","ground_speed":"217","num_passengers":"124","time_in_flight":null}
{"type":"position","ident":"RYR7322","latitude":"44.78806","longitude":"1.14291","clck":"1442222145","identifier":"RYR7322-1442044800-schedule-0002:0","updatetype":"A","air_ground":"A","facilityHash":"75a7c545dcf0330e12465d6b683ca50814535ed8","facilityName":"FlightAware ADS-B","altitude":"37000","ground_speed":"419","num_passengers":"192","time_in_flight":"2505"}
{"type":"position","ident":"BRU812","latitude":"44.91639","longitude":"20.05179","clck":"1442222145","identifier":"BRU812-1442049000-schedule-0000","updatetype":"A","air_ground":"A","facilityHash":"56801eaf4157e5011e729c2d501f20889b86502f","facilityName":"FlightAware ADS-B","altitude":"15000","ground_speed":"294","num_passengers":"1","time_in_flight":"4623"}
{"type":"position","ident":"AAF263","latitude":"37.08728","longitude":"-0.05977","clck":"1442222145","identifier":"AAF263-1442041200-schedule-0000","updatetype":"A","air_ground":"A","facilityHash":"bcb268da4f60f506f3c6e1f94b56804422f9d4e6","facilityName":"FlightAware ADS-B","altitude":"31700","ground_speed":"430","num_passengers":"172","time_in_flight":"7643"}
{"type":"position","ident":"BAW632","latitude":"47.04397","longitude":"11.71424","clck":"1442222145","identifier":"BAW632-1442047065-airline-0060:6","updatetype":"A","air_ground":"A","facilityHash":"a668c20f1d0e77ea7af4c66de68441e34df7b759","facilityName":"FlightAware ADS-B","altitude":"37100","ground_speed":"474","num_passengers":"112","time_in_flight":"1074"}
{"type":"position","ident":"HAL50","latitude":"42.61606","longitude":"-93.54341","clck":"1442222146","identifier":"HAL50-1442020800-schedule-0000","updatetype":"A","air_ground":"A","facilityHash":"c37417a38802fb8aa21c941f2a0e2db34116585a","facilityName":"FlightAware ADS-B","altitude":"39000","ground_speed":"483","num_passengers":"89","time_in_flight":null}
{"type":"position","ident":"DLH773","latitude":"31.16006","longitude":"75.30966","clck":"1442222136","identifier":"DLH773-1442034600-schedule-0000:0","updatetype":"A","air_ground":"A","facilityHash":"28d146771501618b1bb2ad53f57682693a2ad74c","facilityName":"FlightAware ADS-B","altitude":"34000","ground_speed":"446","num_passengers":"287","time_in_flight":"6642"}
{"type":"position","ident":"GWI5576","latitude":"49.94788","longitude":"10.94332","clck":"1442222121","identifier":"GWI5576-1442045700-schedule-0000:0","updatetype":"A","air_ground":"A","facilityHash":"deb82dc2dc0163bd6a8f3cfe581e471fabe1fa6b","facilityName":"FlightAware ADS-B","altitude":"35100","ground_speed":"239","num_passengers":"104","time_in_flight":"7647"}
{"type":"position","ident":"VRD370","latitude":"42.78486","longitude":"-76.04768","clck":"1442222135","identifier":"VRD370-1442119254-119-0","updatetype":"A","air_ground":"A","facilityHash":"2607e98f732ba521702bf10e7d11f231fdd5bae8","facilityName":"FlightAware ADS-B","altitude":"37000","ground_speed":"816","num_passengers":"91","time_in_flight":"7340"}
{"type":"position","ident":"KLM1422","latitude":"52.03679","longitude":"1.79031","clck":"1442222136","identifier":"KLM1422-1442047200-schedule-0001:2","updatetype":"A","air_ground":"A","facilityHash":"bec0e16e9f4b16d2707b708a41b98a622fb2a276","facilityName":"FlightAware ADS-B","altitude":"30900","ground_speed":"452","num_passengers":"81","time_in_flight":"7312"}
{"type":"position","ident":"BAW283","latitude":"52.20392","longitude":"-0.61485","clck":"1442222138","identifier":"BAW283-1442047500-schedule-0001:0","updatetype":"A","air_ground":"A","facilityHash":"7e283589b6cd91b22c8d79cf47c84712e8d6505a","facilityName":"FlightAware ADS-B","altitude":"17700","ground_speed":"810","num_passengers":"339","time_in_flight":"7765"}
{"type":"position","ident":"BAW283","latitude":"52.20392","longitude":"-0.61485","clck":"1442222138","identifier":"BAW283-1442047500-schedule-0001:2","updatetype":"A","air_ground":"A","facilityHash":"7e283589b6cd91b22c8d79cf47c84712e8d6505a","facilityName":"FlightAware ADS-B","altitude":"17700","ground_speed":"810","num_passengers":"339","time_in_flight":"7765"}
{"type":"position","ident":"RYR7974","latitude":"51.68220","longitude":"2.39609","clck":"1442222138","identifier":"RYR7974-1442044800-schedule-0000:6","updatetype":"A","air_ground":"A","facilityHash":"86c9b207999f80a356f8ae75c5eb8ee89687f35d","facilityName":"FlightAware ADS-B","altitude":"22000","ground_speed":"654","num_passengers":"292","time_in_flight":"6712"}
